[
  {
    "Place": "가평지사",
    "Address": "경기도 가평군 가평읍 가화로 169-11",
    "Lon": 127.5105937,
    "Lat": 37.83402237,
    "Fast": 1,
    "Slow": 1,
    "Cars": "ZOE ZEN,레이,쏘울,Peugeot e-208 Allure,Peugeot e-2008 SUV Allure,DS3 E-tense So Chic,SMART EV Z,아이오닉,아이오닉5,i3 120Ah Lux,스파크,BOLT EV LT,Model 3,Model Y,니로EV,코나"
  },
  {
    "Place": "상면사무소",
    "Address": "경기도 가평군 상면 연하리 171-1",
    "Lon": 127.3569632,
    "Lat": 37.80495205,
    "Fast": 1,
    "Slow": 0,
    "Cars": "ZOE ZEN,레이,쏘울,Peugeot e-208 Allure,Peugeot e-2008 SUV Allure,DS3 E-tense So Chic,SMART EV Z,아이오닉,아이오닉5,i3 120Ah Lux,스파크,BOLT EV LT,Model 3,Model Y,니로EV,코나"
  },
  {
    "Place": "설악면사무소",
    "Address": "경기도 가평군 설악면 신천리 156-1",
    "Lon": 127.4946012,
    "Lat": 37.67596423,
    "Fast": 1,
    "Slow": 0,
    "Cars": "ZOE ZEN,레이,쏘울,Peugeot e-208 Allure,Peugeot e-2008 SUV Allure,DS3 E-tense So Chic,SMART EV Z,아이오닉,아이오닉5,i3 120Ah Lux,스파크,BOLT EV LT,Model 3,Model Y,니로EV,코나"
  },
  {
    "Place": "조종면사무소",
    "Address": "경기도 가평군 조종면 현리 567-7",
    "Lon": 127.3532855,
    "Lat": 37.81781222,
    "Fast": 1,
    "Slow": 0,
    "Cars": "ZOE ZEN,레이,쏘울,Peugeot e-208 Allure,Peugeot e-2008 SUV Allure,DS3 E-tense So Chic,SMART EV Z,아이오닉,아이오닉5,i3 120Ah Lux,스파크,BOLT EV LT,Model 3,Model Y,니로EV,코나"
  },
  {
    "Place": "LH강남힐스테이트",
    "Address": "서울특별시 강남구 자곡동 자곡로3길 21",
    "Lon": 127.0895214,
    "Lat": 37.47157831,
    "Fast": 1,
    "Slow": 4,
    "Cars": "ZOE ZEN,레이,쏘울,Peugeot e-208 Allure,Peugeot e-2008 SUV Allure,DS3 E-tense So Chic,SMART EV Z,아이오닉,아이오닉5,i3 120Ah Lux,스파크,BOLT EV LT,Model 3,Model Y,니로EV,코나"
  },
  {
    "Place": "LH서울지사",
    "Address": "서울특별시 강남구 선릉로 121길 12",
    "Lon": 127.0408763,
    "Lat": 37.51414514,
    "Fast": 1,
    "Slow": 0,
    "Cars": "ZOE ZEN,레이,쏘울,Peugeot e-208 Allure,Peugeot e-2008 SUV Allure,DS3 E-tense So Chic,SMART EV Z,아이오닉,아이오닉5,i3 120Ah Lux,스파크,BOLT EV LT,Model 3,Model Y,니로EV,코나"
  },
  {
    "Place": "가람아파트",
    "Address": "서울특별시 강남구 일원동 일원로 127",
    "Lon": 127.0849326,
    "Lat": 37.48169361,
    "Fast": 1,
    "Slow": 0,
    "Cars": "ZOE ZEN,레이,쏘울,Peugeot e-208 Allure,Peugeot e-2008 SUV Allure,DS3 E-tense So Chic,SMART EV Z,아이오닉,아이오닉5,i3 120Ah Lux,스파크,BOLT EV LT,Model 3,Model Y,니로EV,코나"
  },
  {
    "Place": "강남구청 공영주차장",
    "Address": "서울 강남구 삼성동 16-1",
    "Lon": 127.0474623,
    "Lat": 37.51755955,
    "Fast": 1,
    "Slow": 0,
    "Cars": "ZOE ZEN,레이,쏘울,Peugeot e-208 Allure,Peugeot e-2008 SUV Allure,DS3 E-tense So Chic,SMART EV Z,아이오닉,아이오닉5,i3 120Ah Lux,스파크,BOLT EV LT,Model 3,Model Y,니로EV,코나"
  },
  {
    "Place": "강남데시앙파크",
    "Address": "서울특별시 강남구 세곡동 헌릉로590길 63",
    "Lon": 127.1018925,
    "Lat": 37.4607141,
    "Fast": 1,
    "Slow": 1,
    "Cars": "ZOE ZEN,레이,쏘울,Peugeot e-208 Allure,Peugeot e-2008 SUV Allure,DS3 E-tense So Chic,SMART EV Z,아이오닉,아이오닉5,i3 120Ah Lux,스파크,BOLT EV LT,Model 3,Model Y,니로EV,코나"
  },
  {
    "Place": "강남데시앙포레",
    "Address": "서울특별시 강남구 수서동 광평로34길55",
    "Lon": 127.0923648,
    "Lat": 37.48084633,
    "Fast": 1,
    "Slow": 3,
    "Cars": "ZOE ZEN,레이,쏘울,Peugeot e-208 Allure,Peugeot e-2008 SUV Allure,DS3 E-tense So Chic,SMART EV Z,아이오닉,아이오닉5,i3 120Ah Lux,스파크,BOLT EV LT,Model 3,Model Y,니로EV,코나"
  },
  {
    "Place": "강남세브란스 병원",
    "Address": "서울특별시 강남구 언주로 211",
    "Lon": 127.0463195,
    "Lat": 37.49209082,
    "Fast": 2,
    "Slow": 0,
    "Cars": "ZOE ZEN,레이,쏘울,Peugeot e-208 Allure,Peugeot e-2008 SUV Allure,DS3 E-tense So Chic,SMART EV Z,아이오닉,아이오닉5,i3 120Ah Lux,스파크,BOLT EV LT,Model 3,Model Y,니로EV,코나"
  },
  {
    "Place": "강남아이파크",
    "Address": "서울특별시 강남구 자곡동 자곡로 175",
    "Lon": 127.1013597,
    "Lat": 37.47441758,
    "Fast": 1,
    "Slow": 1,
    "Cars": "ZOE ZEN,레이,쏘울,Peugeot e-208 Allure,Peugeot e-2008 SUV Allure,DS3 E-tense So Chic,SMART EV Z,아이오닉,아이오닉5,i3 120Ah Lux,스파크,BOLT EV LT,Model 3,Model Y,니로EV,코나"
  },
  {
    "Place": "강남한신휴 플러스8단지",
    "Address": "서울특별시 강남구 율현동 밤고개로27길 20",
    "Lon": 127.1109278,
    "Lat": 37.46905597,
    "Fast": 0,
    "Slow": 2,
    "Cars": "ZOE ZEN,레이,쏘울,Peugeot e-208 Allure,Peugeot e-2008 SUV Allure,DS3 E-tense So Chic,SMART EV Z,아이오닉,아이오닉5,i3 120Ah Lux,스파크,BOLT EV LT,Model 3,Model Y,니로EV,코나"
  },
  {
    "Place": "강남한신휴플러스6단지 아파트",
    "Address": "서울특별시 강남구 율현동 밤고개로26길 50",
    "Lon": 127.1046278,
    "Lat": 37.46857644,
    "Fast": 1,
    "Slow": 2,
    "Cars": "ZOE ZEN,레이,쏘울,Peugeot e-208 Allure,Peugeot e-2008 SUV Allure,DS3 E-tense So Chic,SMART EV Z,아이오닉,아이오닉5,i3 120Ah Lux,스파크,BOLT EV LT,Model 3,Model Y,니로EV,코나"
  },
  {
    "Place": "강남한양수자인",
    "Address": "서울특별시 강남구 자곡동 자곡로 260",
    "Lon": 127.1127524,
    "Lat": 37.47680352,
    "Fast": 1,
    "Slow": 4,
    "Cars": "ZOE ZEN,레이,쏘울,Peugeot e-208 Allure,Peugeot e-2008 SUV Allure,DS3 E-tense So Chic,SMART EV Z,아이오닉,아이오닉5,i3 120Ah Lux,스파크,BOLT EV LT,Model 3,Model Y,니로EV,코나"
  },
  {
    "Place": "개나리래미안 아파트",
    "Address": "서울특별시 강남구 역삼동 역삼로 306",
    "Lon": 127.0474798,
    "Lat": 37.49923629,
    "Fast": 1,
    "Slow": 2,
    "Cars": "ZOE ZEN,레이,쏘울,Peugeot e-208 Allure,Peugeot e-2008 SUV Allure,DS3 E-tense So Chic,SMART EV Z,아이오닉,아이오닉5,i3 120Ah Lux,스파크,BOLT EV LT,Model 3,Model Y,니로EV,코나"
  },
  {
    "Place": "개나리푸르지오",
    "Address": "서울 강남구 역삼동 755-1",
    "Lon": 127.0499553,
    "Lat": 37.49971224,
    "Fast": 0,
    "Slow": 3,
    "Cars": "레이,쏘울,Peugeot e-208 Allure,Peugeot e-2008 SUV Allure,DS3 E-tense So Chic,SMART EV Z,아이오닉,아이오닉5,i3 120Ah Lux,스파크,BOLT EV LT,니로EV,코나"
  },
  {
    "Place": "개포7차 우성 아파트",
    "Address": "서울특별시 강남구 일원동 개포로110길 15",
    "Lon": 127.0775912,
    "Lat": 37.4927611,
    "Fast": 1,
    "Slow": 1,
    "Cars": "ZOE ZEN,레이,쏘울,Peugeot e-208 Allure,Peugeot e-2008 SUV Allure,DS3 E-tense So Chic,SMART EV Z,아이오닉,아이오닉5,i3 120Ah Lux,스파크,BOLT EV LT,Model 3,Model Y,니로EV,코나"
  },
  {
    "Place": "금호어울림 아파트(삼성동)",
    "Address": "서울특별시 강남구 삼성동 봉은사로111길 25",
    "Lon": 127.0647109,
    "Lat": 37.51672998,
    "Fast": 0,
    "Slow": 1,
    "Cars": "ZOE ZEN,레이,쏘울,Peugeot e-208 Allure,Peugeot e-2008 SUV Allure,DS3 E-tense So Chic,SMART EV Z,아이오닉,아이오닉5,i3 120Ah Lux,스파크,BOLT EV LT,Model 3,Model Y,니로EV,코나"
  },
  {
    "Place": "대치2문화센터 공영주차장",
    "Address": "서울 강남구 대치동 980-9",
    "Lon": 127.064143,
    "Lat": 37.50224742,
    "Fast": 1,
    "Slow": 0,
    "Cars": "ZOE ZEN,Model 3,Model Y"
  },
  {
    "Place": "대치현대 아파트",
    "Address": "서울특별시 강남구 대치동 삼성로64길 5",
    "Lon": 127.0603669,
    "Lat": 37.50118349,
    "Fast": 1,
    "Slow": 1,
    "Cars": "ZOE ZEN,레이,쏘울,Peugeot e-208 Allure,Peugeot e-2008 SUV Allure,DS3 E-tense So Chic,SMART EV Z,아이오닉,아이오닉5,i3 120Ah Lux,스파크,BOLT EV LT,Model 3,Model Y,니로EV,코나"
  },
  {
    "Place": "도곡대림아크로빌",
    "Address": "서울특별시 강남구 도곡동 언주로30길 13",
    "Lon": 127.0514157,
    "Lat": 37.48853638,
    "Fast": 1,
    "Slow": 0,
    "Cars": "ZOE ZEN,레이,쏘울,Peugeot e-208 Allure,Peugeot e-2008 SUV Allure,DS3 E-tense So Chic,SMART EV Z,아이오닉,아이오닉5,i3 120Ah Lux,스파크,BOLT EV LT,Model 3,Model Y,니로EV,코나"
  },
  {
    "Place": "도곡렉슬 아파트",
    "Address": "서울특별시 강남구 도곡동 선릉로 221",
    "Lon": 127.0536639,
    "Lat": 37.4936466,
    "Fast": 2,
    "Slow": 2,
    "Cars": "ZOE ZEN,레이,쏘울,Peugeot e-208 Allure,Peugeot e-2008 SUV Allure,DS3 E-tense So Chic,SMART EV Z,아이오닉,아이오닉5,i3 120Ah Lux,스파크,BOLT EV LT,Model 3,Model Y,니로EV,코나"
  },
  {
    "Place": "도성 아파트",
    "Address": "서울특별시 강남구 삼성로67길 14",
    "Lon": 127.0583117,
    "Lat": 37.50112625,
    "Fast": 0,
    "Slow": 2,
    "Cars": "ZOE ZEN,레이,쏘울,Peugeot e-208 Allure,Peugeot e-2008 SUV Allure,DS3 E-tense So Chic,SMART EV Z,아이오닉,아이오닉5,i3 120Ah Lux,스파크,BOLT EV LT,Model 3,Model Y,니로EV,코나"
  },
  {
    "Place": "라테라스삼성",
    "Address": "서울특별시 강남구 삼성동 봉은사로 645",
    "Lon": 127.0657984,
    "Lat": 37.51555086,
    "Fast": 0,
    "Slow": 1,
    "Cars": "ZOE ZEN,레이,쏘울,Peugeot e-208 Allure,Peugeot e-2008 SUV Allure,DS3 E-tense So Chic,SMART EV Z,아이오닉,아이오닉5,i3 120Ah Lux,스파크,BOLT EV LT,Model 3,Model Y,니로EV,코나"
  },
  {
    "Place": "래미안강남힐즈",
    "Address": "서울특별시 강남구 자곡동 자곡로 101",
    "Lon": 127.0946267,
    "Lat": 37.47486671,
    "Fast": 1,
    "Slow": 2,
    "Cars": "ZOE ZEN,레이,쏘울,Peugeot e-208 Allure,Peugeot e-2008 SUV Allure,DS3 E-tense So Chic,SMART EV Z,아이오닉,아이오닉5,i3 120Ah Lux,스파크,BOLT EV LT,Model 3,Model Y,니로EV,코나"
  },
  {
    "Place": "래미안그레이튼",
    "Address": "서울특별시 강남구 역삼동 도곡로43길 20",
    "Lon": 127.0488506,
    "Lat": 37.49632681,
    "Fast": 1,
    "Slow": 1,
    "Cars": "ZOE ZEN,레이,쏘울,Peugeot e-208 Allure,Peugeot e-2008 SUV Allure,DS3 E-tense So Chic,SMART EV Z,아이오닉,아이오닉5,i3 120Ah Lux,스파크,BOLT EV LT,Model 3,Model Y,니로EV,코나"
  },
  {
    "Place": "래미안대치팰리스",
    "Address": "서울특별시 강남구 대치동 삼성로51길 37",
    "Lon": 127.0591234,
    "Lat": 37.49523655,
    "Fast": 2,
    "Slow": 0,
    "Cars": "ZOE ZEN,레이,쏘울,Peugeot e-208 Allure,Peugeot e-2008 SUV Allure,DS3 E-tense So Chic,SMART EV Z,아이오닉,아이오닉5,i3 120Ah Lux,스파크,BOLT EV LT,Model 3,Model Y,니로EV,코나"
  },
  {
    "Place": "래미안대치하이스턴 아파트",
    "Address": "서울특별시 강남구 대치동 도곡로93길 12",
    "Lon": 127.0659721,
    "Lat": 37.50081879,
    "Fast": 1,
    "Slow": 1,
    "Cars": "ZOE ZEN,레이,쏘울,Peugeot e-208 Allure,Peugeot e-2008 SUV Allure,DS3 E-tense So Chic,SMART EV Z,아이오닉,아이오닉5,i3 120Ah Lux,스파크,BOLT EV LT,Model 3,Model Y,니로EV,코나"
  },
  {
    "Place": "래미안삼성1차",
    "Address": "서울 강남구 삼성동 103-22",
    "Lon": 127.0639485,
    "Lat": 37.51712565,
    "Fast": 0,
    "Slow": 2,
    "Cars": "레이,쏘울,Peugeot e-208 Allure,Peugeot e-2008 SUV Allure,DS3 E-tense So Chic,SMART EV Z,아이오닉,아이오닉5,i3 120Ah Lux,스파크,BOLT EV LT,니로EV,코나"
  },
  {
    "Place": "삼성동 에스케이뷰 아파트",
    "Address": "서울특별시 강남구 삼성동 봉은사로109길 14-8",
    "Lon": 127.0648646,
    "Lat": 37.51631592,
    "Fast": 0,
    "Slow": 1,
    "Cars": "ZOE ZEN,레이,쏘울,Peugeot e-208 Allure,Peugeot e-2008 SUV Allure,DS3 E-tense So Chic,SMART EV Z,아이오닉,아이오닉5,i3 120Ah Lux,스파크,BOLT EV LT,Model 3,Model Y,니로EV,코나"
  },
  {
    "Place": "삼성동한일아파트",
    "Address": "서울 강남구 삼성동 48",
    "Lon": 127.0498516,
    "Lat": 37.51397286,
    "Fast": 0,
    "Slow": 1,
    "Cars": "ZOE ZEN,레이,쏘울,Peugeot e-208 Allure,Peugeot e-2008 SUV Allure,DS3 E-tense So Chic,SMART EV Z,아이오닉,아이오닉5,i3 120Ah Lux,스파크,BOLT EV LT,Model 3,Model Y,니로EV,코나"
  },
  {
    "Place": "삼성동현대아파트",
    "Address": "서울특별시 강남구 삼성동 학동로64길 14",
    "Lon": 127.0446114,
    "Lat": 37.51676569,
    "Fast": 0,
    "Slow": 1,
    "Cars": "ZOE ZEN,레이,쏘울,Peugeot e-208 Allure,Peugeot e-2008 SUV Allure,DS3 E-tense So Chic,SMART EV Z,아이오닉,아이오닉5,i3 120Ah Lux,스파크,BOLT EV LT,Model 3,Model Y,니로EV,코나"
  },
  {
    "Place": "삼성동힐스테이트2단지",
    "Address": "서울특별시 강남구 삼성로 111길 8",
    "Lon": 127.051961,
    "Lat": 37.51419456,
    "Fast": 1,
    "Slow": 3,
    "Cars": "ZOE ZEN,레이,쏘울,Peugeot e-208 Allure,Peugeot e-2008 SUV Allure,DS3 E-tense So Chic,SMART EV Z,아이오닉,아이오닉5,i3 120Ah Lux,스파크,BOLT EV LT,Model 3,Model Y,니로EV,코나"
  },
  {
    "Place": "삼성우정에쉐르아파트",
    "Address": "서울 강남구 삼성동 3-8",
    "Lon": 127.0443041,
    "Lat": 37.51717267,
    "Fast": 0,
    "Slow": 2,
    "Cars": "ZOE ZEN,레이,쏘울,Peugeot e-208 Allure,Peugeot e-2008 SUV Allure,DS3 E-tense So Chic,SMART EV Z,아이오닉,아이오닉5,i3 120Ah Lux,스파크,BOLT EV LT,Model 3,Model Y,니로EV,코나"
  },
  {
    "Place": "삼성중앙하이츠빌리지",
    "Address": "서울특별시 강남구 삼성동 학동로68길 30",
    "Lon": 127.0465365,
    "Lat": 37.51619957,
    "Fast": 0,
    "Slow": 1,
    "Cars": "ZOE ZEN,레이,쏘울,Peugeot e-208 Allure,Peugeot e-2008 SUV Allure,DS3 E-tense So Chic,SMART EV Z,아이오닉,아이오닉5,i3 120Ah Lux,스파크,BOLT EV LT,Model 3,Model Y,니로EV,코나"
  },
  {
    "Place": "삼성파크 아파트",
    "Address": "서울특별시 강남구 삼성동 삼성로99길 14",
    "Lon": 127.0538237,
    "Lat": 37.50921142,
    "Fast": 0,
    "Slow": 2,
    "Cars": "ZOE ZEN,레이,쏘울,Peugeot e-208 Allure,Peugeot e-2008 SUV Allure,DS3 E-tense So Chic,SMART EV Z,아이오닉,아이오닉5,i3 120Ah Lux,스파크,BOLT EV LT,Model 3,Model Y,니로EV,코나"
  },
  {
    "Place": "샘터마을 아파트",
    "Address": "서울특별시 강남구 일원동 일원로 120",
    "Lon": 127.0831383,
    "Lat": 37.484139,
    "Fast": 1,
    "Slow": 0,
    "Cars": "ZOE ZEN,레이,쏘울,Peugeot e-208 Allure,Peugeot e-2008 SUV Allure,DS3 E-tense So Chic,SMART EV Z,아이오닉,아이오닉5,i3 120Ah Lux,스파크,BOLT EV LT,Model 3,Model Y,니로EV,코나"
  },
  {
    "Place": "세곡리엔파크1단지",
    "Address": "서울 강남구 세곡동 508",
    "Lon": 127.1004793,
    "Lat": 37.46422107,
    "Fast": 0,
    "Slow": 3,
    "Cars": "ZOE ZEN,레이,쏘울,Peugeot e-208 Allure,Peugeot e-2008 SUV Allure,DS3 E-tense So Chic,SMART EV Z,아이오닉,아이오닉5,i3 120Ah Lux,스파크,BOLT EV LT,Model 3,Model Y,니로EV,코나"
  },
  {
    "Place": "세곡리엔파크2단지 아파트",
    "Address": "서울특별시 강남구 세곡동 헌릉로 590길10",
    "Lon": 127.1026817,
    "Lat": 37.46450701,
    "Fast": 1,
    "Slow": 0,
    "Cars": "ZOE ZEN,레이,쏘울,Peugeot e-208 Allure,Peugeot e-2008 SUV Allure,DS3 E-tense So Chic,SMART EV Z,아이오닉,아이오닉5,i3 120Ah Lux,스파크,BOLT EV LT,Model 3,Model Y,니로EV,코나"
  },
  {
    "Place": "세곡리엔파크3단지",
    "Address": "서울특별시 강남구 세곡동 헌릉로590길 11",
    "Lon": 127.103825,
    "Lat": 37.46440043,
    "Fast": 1,
    "Slow": 1,
    "Cars": "ZOE ZEN,레이,쏘울,Peugeot e-208 Allure,Peugeot e-2008 SUV Allure,DS3 E-tense So Chic,SMART EV Z,아이오닉,아이오닉5,i3 120Ah Lux,스파크,BOLT EV LT,Model 3,Model Y,니로EV,코나"
  },
  {
    "Place": "세곡푸르지오아파트",
    "Address": "서울 강남구 세곡동 533",
    "Lon": 127.0929435,
    "Lat": 37.46677044,
    "Fast": 1,
    "Slow": 1,
    "Cars": "ZOE ZEN,레이,쏘울,Peugeot e-208 Allure,Peugeot e-2008 SUV Allure,DS3 E-tense So Chic,SMART EV Z,아이오닉,아이오닉5,i3 120Ah Lux,스파크,BOLT EV LT,Model 3,Model Y,니로EV,코나"
  },
  {
    "Place": "아이파크삼성동",
    "Address": "서울특별시 강남구 삼성동 영동대로 640",
    "Lon": 127.058312,
    "Lat": 37.51871508,
    "Fast": 1,
    "Slow": 0,
    "Cars": "ZOE ZEN,레이,쏘울,Peugeot e-208 Allure,Peugeot e-2008 SUV Allure,DS3 E-tense So Chic,SMART EV Z,아이오닉,아이오닉5,i3 120Ah Lux,스파크,BOLT EV LT,Model 3,Model Y,니로EV,코나"
  },
  {
    "Place": "아크로힐스논현",
    "Address": "서울 강남구 논현동 276-1",
    "Lon": 127.0389305,
    "Lat": 37.50951563,
    "Fast": 1,
    "Slow": 2,
    "Cars": "ZOE ZEN,레이,쏘울,Peugeot e-208 Allure,Peugeot e-2008 SUV Allure,DS3 E-tense So Chic,SMART EV Z,아이오닉,아이오닉5,i3 120Ah Lux,스파크,BOLT EV LT,Model 3,Model Y,니로EV,코나"
  },
  {
    "Place": "압구정하이츠파크",
    "Address": "서울특별시 강남구 신사동 압구정로42길 78",
    "Lon": 127.0336623,
    "Lat": 37.5235237,
    "Fast": 0,
    "Slow": 2,
    "Cars": "ZOE ZEN,레이,쏘울,Peugeot e-208 Allure,Peugeot e-2008 SUV Allure,DS3 E-tense So Chic,SMART EV Z,아이오닉,아이오닉5,i3 120Ah Lux,스파크,BOLT EV LT,Model 3,Model Y,니로EV,코나"
  },
  {
    "Place": "역삼2차아이파크아파트",
    "Address": "서울특별시 강남구 역삼동 도곡로57길 12",
    "Lon": 127.0518,
    "Lat": 37.49688218,
    "Fast": 0,
    "Slow": 3,
    "Cars": "ZOE ZEN,레이,쏘울,Peugeot e-208 Allure,Peugeot e-2008 SUV Allure,DS3 E-tense So Chic,SMART EV Z,아이오닉,아이오닉5,i3 120Ah Lux,스파크,BOLT EV LT,Model 3,Model Y,니로EV,코나"
  },
  {
    "Place": "역삼e-편한세상",
    "Address": "서울 강남구 역삼동 755-4",
    "Lon": 127.0498544,
    "Lat": 37.49876825,
    "Fast": 1,
    "Slow": 3,
    "Cars": "ZOE ZEN,레이,쏘울,Peugeot e-208 Allure,Peugeot e-2008 SUV Allure,DS3 E-tense So Chic,SMART EV Z,아이오닉,아이오닉5,i3 120Ah Lux,스파크,BOLT EV LT,Model 3,Model Y,니로EV,코나"
  },
  {
    "Place": "역삼래미안",
    "Address": "서울 강남구 역삼동 757",
    "Lon": 127.0500241,
    "Lat": 37.49750675,
    "Fast": 1,
    "Slow": 4,
    "Cars": "ZOE ZEN,레이,쏘울,Peugeot e-208 Allure,Peugeot e-2008 SUV Allure,DS3 E-tense So Chic,SMART EV Z,아이오닉,아이오닉5,i3 120Ah Lux,스파크,BOLT EV LT,Model 3,Model Y,니로EV,코나"
  },
  {
    "Place": "우정에쉐르 3차",
    "Address": "서울 강남구 대치동 950",
    "Lon": 127.0622539,
    "Lat": 37.50687465,
    "Fast": 0,
    "Slow": 1,
    "Cars": "ZOE ZEN,레이,쏘울,Peugeot e-208 Allure,Peugeot e-2008 SUV Allure,DS3 E-tense So Chic,SMART EV Z,아이오닉,아이오닉5,i3 120Ah Lux,스파크,BOLT EV LT,Model 3,Model Y,니로EV,코나"
  },
  {
    "Place": "청담래미안로이뷰",
    "Address": "서울특별시 강남구 청담동 영동대로142길 16",
    "Lon": 127.0562117,
    "Lat": 37.52475756,
    "Fast": 0,
    "Slow": 1,
    "Cars": "ZOE ZEN,레이,쏘울,Peugeot e-208 Allure,Peugeot e-2008 SUV Allure,DS3 E-tense So Chic,SMART EV Z,아이오닉,아이오닉5,i3 120Ah Lux,스파크,BOLT EV LT,Model 3,Model Y,니로EV,코나"
  },
  {
    "Place": "청담자이 아파트",
    "Address": "서울특별시 강남구 청담동 영동대로138길 12",
    "Lon": 127.0580204,
    "Lat": 37.52366361,
    "Fast": 1,
    "Slow": 3,
    "Cars": "ZOE ZEN,레이,쏘울,Peugeot e-208 Allure,Peugeot e-2008 SUV Allure,DS3 E-tense So Chic,SMART EV Z,아이오닉,아이오닉5,i3 120Ah Lux,스파크,BOLT EV LT,Model 3,Model Y,니로EV,코나"
  },
  {
    "Place": "청담파크파라곤",
    "Address": "서울특별시 강남구 청담동 학동로97길 31",
    "Lon": 127.05431,
    "Lat": 37.52186606,
    "Fast": 0,
    "Slow": 1,
    "Cars": "ZOE ZEN,레이,쏘울,Peugeot e-208 Allure,Peugeot e-2008 SUV Allure,DS3 E-tense So Chic,SMART EV Z,아이오닉,아이오닉5,i3 120Ah Lux,스파크,BOLT EV LT,Model 3,Model Y,니로EV,코나"
  },
  {
    "Place": "타워팰리스 2차",
    "Address": "서울특별시 강남구 도곡동 언주로30길 57",
    "Lon": 127.0550067,
    "Lat": 37.48993247,
    "Fast": 1,
    "Slow": 1,
    "Cars": "ZOE ZEN,레이,쏘울,Peugeot e-208 Allure,Peugeot e-2008 SUV Allure,DS3 E-tense So Chic,SMART EV Z,아이오닉,아이오닉5,i3 120Ah Lux,스파크,BOLT EV LT,Model 3,Model Y,니로EV,코나"
  },
  {
    "Place": "타워팰리스1차",
    "Address": "서울특별시 강남구 도곡동 언주로30길 56",
    "Lon": 127.0540375,
    "Lat": 37.48861616,
    "Fast": 1,
    "Slow": 4,
    "Cars": "ZOE ZEN,레이,쏘울,Peugeot e-208 Allure,Peugeot e-2008 SUV Allure,DS3 E-tense So Chic,SMART EV Z,아이오닉,아이오닉5,i3 120Ah Lux,스파크,BOLT EV LT,Model 3,Model Y,니로EV,코나"
  },
  {
    "Place": "타워팰리스G동",
    "Address": "서울특별시 강남구 도곡동 언주로30길 26",
    "Lon": 127.052823,
    "Lat": 37.48717507,
    "Fast": 1,
    "Slow": 2,
    "Cars": "ZOE ZEN,레이,쏘울,Peugeot e-208 Allure,Peugeot e-2008 SUV Allure,DS3 E-tense So Chic,SMART EV Z,아이오닉,아이오닉5,i3 120Ah Lux,스파크,BOLT EV LT,Model 3,Model Y,니로EV,코나"
  },
  {
    "Place": "헌릉로745길 노상주차장",
    "Address": "서울특별시 강남구 율현동 101-13",
    "Lon": 127.1184378,
    "Lat": 37.47024595,
    "Fast": 1,
    "Slow": 0,
    "Cars": "ZOE ZEN,레이,쏘울,Peugeot e-208 Allure,Peugeot e-2008 SUV Allure,DS3 E-tense So Chic,SMART EV Z,아이오닉,아이오닉5,i3 120Ah Lux,스파크,BOLT EV LT,Model 3,Model Y,니로EV,코나"
  },
  {
    "Place": "현대까르띠에710아파트",
    "Address": "서울 강남구 역삼동 710",
    "Lon": 127.0448972,
    "Lat": 37.50146132,
    "Fast": 0,
    "Slow": 2,
    "Cars": "ZOE ZEN,레이,쏘울,Peugeot e-208 Allure,Peugeot e-2008 SUV Allure,DS3 E-tense So Chic,SMART EV Z,아이오닉,아이오닉5,i3 120Ah Lux,스파크,BOLT EV LT,Model 3,Model Y,니로EV,코나"
  },
  {
    "Place": "GS강동자이 아파트",
    "Address": "서울시 강동구 천호대로 1239(길동)",
    "Lon": 127.1488691,
    "Lat": 37.53707772,
    "Fast": 1,
    "Slow": 2,
    "Cars": "ZOE ZEN,레이,쏘울,Peugeot e-208 Allure,Peugeot e-2008 SUV Allure,DS3 E-tense So Chic,SMART EV Z,아이오닉,아이오닉5,i3 120Ah Lux,스파크,BOLT EV LT,Model 3,Model Y,니로EV,코나"
  },
  {
    "Place": "강동보건소",
    "Address": "서울 강동구 성내동 541-2",
    "Lon": 127.1255369,
    "Lat": 37.52922381,
    "Fast": 1,
    "Slow": 0,
    "Cars": "ZOE ZEN,Model 3,Model Y"
  },
  {
    "Place": "강동송파지사",
    "Address": "서울 강동구 둔촌동 522-9",
    "Lon": 127.1355457,
    "Lat": 37.52381406,
    "Fast": 1,
    "Slow": 3,
    "Cars": "ZOE ZEN,레이,쏘울,Peugeot e-208 Allure,Peugeot e-2008 SUV Allure,DS3 E-tense So Chic,SMART EV Z,아이오닉,아이오닉5,i3 120Ah Lux,스파크,BOLT EV LT,Model 3,Model Y,니로EV,코나"
  },
  {
    "Place": "강동헤르셔",
    "Address": "서울특별시 강동구 천호동 천호대로 1089",
    "Lon": 127.1331786,
    "Lat": 37.53610496,
    "Fast": 1,
    "Slow": 2,
    "Cars": "ZOE ZEN,레이,쏘울,Peugeot e-208 Allure,Peugeot e-2008 SUV Allure,DS3 E-tense So Chic,SMART EV Z,아이오닉,아이오닉5,i3 120Ah Lux,스파크,BOLT EV LT,Model 3,Model Y,니로EV,코나"
  },
  {
    "Place": "강일리버파크 6단지",
    "Address": "서울특별시 강동구 강일동 아리수로94길 19",
    "Lon": 127.1760796,
    "Lat": 37.5636621,
    "Fast": 1,
    "Slow": 0,
    "Cars": "ZOE ZEN,레이,쏘울,Peugeot e-208 Allure,Peugeot e-2008 SUV Allure,DS3 E-tense So Chic,SMART EV Z,아이오닉,아이오닉5,i3 120Ah Lux,스파크,BOLT EV LT,Model 3,Model Y,니로EV,코나"
  },
  {
    "Place": "강일리버파크10단지",
    "Address": "서울특별시 강동구 강일동 고덕로97길 20",
    "Lon": 127.1813625,
    "Lat": 37.55918548,
    "Fast": 1,
    "Slow": 0,
    "Cars": "ZOE ZEN,레이,쏘울,Peugeot e-208 Allure,Peugeot e-2008 SUV Allure,DS3 E-tense So Chic,SMART EV Z,아이오닉,아이오닉5,i3 120Ah Lux,스파크,BOLT EV LT,Model 3,Model Y,니로EV,코나"
  },
  {
    "Place": "강일리버파크11단지",
    "Address": "서울특별시 강동구 강일동 고덕로97길 100",
    "Lon": 127.1796424,
    "Lat": 37.56310622,
    "Fast": 0,
    "Slow": 1,
    "Cars": "ZOE ZEN,레이,쏘울,Peugeot e-208 Allure,Peugeot e-2008 SUV Allure,DS3 E-tense So Chic,SMART EV Z,아이오닉,아이오닉5,i3 120Ah Lux,스파크,BOLT EV LT,Model 3,Model Y,니로EV,코나"
  },
  {
    "Place": "강일리버파크3단지",
    "Address": "서울특별시 강동구 강일동 아리수로93길 40",
    "Lon": 127.1740784,
    "Lat": 37.56783995,
    "Fast": 1,
    "Slow": 1,
    "Cars": "ZOE ZEN,레이,쏘울,Peugeot e-208 Allure,Peugeot e-2008 SUV Allure,DS3 E-tense So Chic,SMART EV Z,아이오닉,아이오닉5,i3 120Ah Lux,스파크,BOLT EV LT,Model 3,Model Y,니로EV,코나"
  },
  {
    "Place": "강일리버파크5단지",
    "Address": "서울특별시 강동구 강일동 아리수로97길 20",
    "Lon": 127.1777179,
    "Lat": 37.56679427,
    "Fast": 1,
    "Slow": 3,
    "Cars": "ZOE ZEN,레이,쏘울,Peugeot e-208 Allure,Peugeot e-2008 SUV Allure,DS3 E-tense So Chic,SMART EV Z,아이오닉,아이오닉5,i3 120Ah Lux,스파크,BOLT EV LT,Model 3,Model Y,니로EV,코나"
  },
  {
    "Place": "강일리버파크7단지 아파트",
    "Address": "서울특별시 강동구 아리수로98길 25",
    "Lon": 127.1787282,
    "Lat": 37.56455942,
    "Fast": 1,
    "Slow": 3,
    "Cars": "ZOE ZEN,레이,쏘울,Peugeot e-208 Allure,Peugeot e-2008 SUV Allure,DS3 E-tense So Chic,SMART EV Z,아이오닉,아이오닉5,i3 120Ah Lux,스파크,BOLT EV LT,Model 3,Model Y,니로EV,코나"
  },
  {
    "Place": "경보그레이스 힐",
    "Address": "서울특별시 강동구 성내동 풍성로53길 40",
    "Lon": 127.1353845,
    "Lat": 37.53112963,
    "Fast": 0,
    "Slow": 2,
    "Cars": "ZOE ZEN,레이,쏘울,Peugeot e-208 Allure,Peugeot e-2008 SUV Allure,DS3 E-tense So Chic,SMART EV Z,아이오닉,아이오닉5,i3 120Ah Lux,스파크,BOLT EV LT,Model 3,Model Y,니로EV,코나"
  },
  {
    "Place": "고덕리엔파크1단지",
    "Address": "서울특별시 강동구 상일로 152",
    "Lon": 127.1716406,
    "Lat": 37.56052556,
    "Fast": 0,
    "Slow": 2,
    "Cars": "ZOE ZEN,레이,쏘울,Peugeot e-208 Allure,Peugeot e-2008 SUV Allure,DS3 E-tense So Chic,SMART EV Z,아이오닉,아이오닉5,i3 120Ah Lux,스파크,BOLT EV LT,Model 3,Model Y,니로EV,코나"
  },
  {
    "Place": "고덕리엔파크3단지 아파트",
    "Address": "서울특별시 강동구 상일로 74",
    "Lon": 127.1756196,
    "Lat": 37.55452453,
    "Fast": 2,
    "Slow": 6,
    "Cars": "ZOE ZEN,레이,쏘울,Peugeot e-208 Allure,Peugeot e-2008 SUV Allure,DS3 E-tense So Chic,SMART EV Z,아이오닉,아이오닉5,i3 120Ah Lux,스파크,BOLT EV LT,Model 3,Model Y,니로EV,코나"
  },
  {
    "Place": "고덕아이파크",
    "Address": "서울특별시 강동구 고덕동 동남로79길 26",
    "Lon": 127.1561149,
    "Lat": 37.5590392,
    "Fast": 1,
    "Slow": 3,
    "Cars": "ZOE ZEN,레이,쏘울,Peugeot e-208 Allure,Peugeot e-2008 SUV Allure,DS3 E-tense So Chic,SMART EV Z,아이오닉,아이오닉5,i3 120Ah Lux,스파크,BOLT EV LT,Model 3,Model Y,니로EV,코나"
  },
  {
    "Place": "길동삼익파크",
    "Address": "서울특별시 강동구 길동 명일로 293",
    "Lon": 127.1475521,
    "Lat": 37.54377313,
    "Fast": 1,
    "Slow": 2,
    "Cars": "ZOE ZEN,레이,쏘울,Peugeot e-208 Allure,Peugeot e-2008 SUV Allure,DS3 E-tense So Chic,SMART EV Z,아이오닉,아이오닉5,i3 120Ah Lux,스파크,BOLT EV LT,Model 3,Model Y,니로EV,코나"
  },
  {
    "Place": "대우한강베네시티 아파트",
    "Address": "서울시 강동구 올림픽로 664",
    "Lon": 127.1249756,
    "Lat": 37.54055443,
    "Fast": 0,
    "Slow": 2,
    "Cars": "ZOE ZEN,레이,쏘울,Peugeot e-208 Allure,Peugeot e-2008 SUV Allure,DS3 E-tense So Chic,SMART EV Z,아이오닉,아이오닉5,i3 120Ah Lux,스파크,BOLT EV LT,Model 3,Model Y,니로EV,코나"
  },
  {
    "Place": "둔촌푸르지오아파트",
    "Address": "서울특별시 강동구 둔촌동 명일로 172",
    "Lon": 127.1463583,
    "Lat": 37.53378478,
    "Fast": 1,
    "Slow": 3,
    "Cars": "ZOE ZEN,레이,쏘울,Peugeot e-208 Allure,Peugeot e-2008 SUV Allure,DS3 E-tense So Chic,SMART EV Z,아이오닉,아이오닉5,i3 120Ah Lux,스파크,BOLT EV LT,Model 3,Model Y,니로EV,코나"
  },
  {
    "Place": "명일동 공영주차장",
    "Address": "서울특별시 강동구 구천면로 395(명일동)",
    "Lon": 127.1429052,
    "Lat": 37.55104211,
    "Fast": 2,
    "Slow": 0,
    "Cars": "ZOE ZEN,레이,쏘울,Peugeot e-208 Allure,Peugeot e-2008 SUV Allure,DS3 E-tense So Chic,SMART EV Z,아이오닉,아이오닉5,i3 120Ah Lux,스파크,BOLT EV LT,Model 3,Model Y,니로EV,코나"
  },
  {
    "Place": "명일한양아파트",
    "Address": "서울특별시 강동구 명일동 동남로71길 19",
    "Lon": 127.1554774,
    "Lat": 37.55135095,
    "Fast": 1,
    "Slow": 0,
    "Cars": "ZOE ZEN,레이,쏘울,Peugeot e-208 Allure,Peugeot e-2008 SUV Allure,DS3 E-tense So Chic,SMART EV Z,아이오닉,아이오닉5,i3 120Ah Lux,스파크,BOLT EV LT,Model 3,Model Y,니로EV,코나"
  },
  {
    "Place": "삼익가든아파트",
    "Address": "서울 강동구 명일동 260-1",
    "Lon": 127.1471521,
    "Lat": 37.54603451,
    "Fast": 0,
    "Slow": 2,
    "Cars": "ZOE ZEN,레이,쏘울,Peugeot e-208 Allure,Peugeot e-2008 SUV Allure,DS3 E-tense So Chic,SMART EV Z,아이오닉,아이오닉5,i3 120Ah Lux,스파크,BOLT EV LT,Model 3,Model Y,니로EV,코나"
  },
  {
    "Place": "성내1차이편한세상",
    "Address": "서울 강동구 성내동 598",
    "Lon": 127.1308861,
    "Lat": 37.53322651,
    "Fast": 0,
    "Slow": 2,
    "Cars": "ZOE ZEN,레이,쏘울,Peugeot e-208 Allure,Peugeot e-2008 SUV Allure,DS3 E-tense So Chic,SMART EV Z,아이오닉,아이오닉5,i3 120Ah Lux,스파크,BOLT EV LT,Model 3,Model Y,니로EV,코나"
  },
  {
    "Place": "성내동중앙하이츠",
    "Address": "서울특별시 강동구 성내동 410-2",
    "Lon": 127.1335197,
    "Lat": 37.53051989,
    "Fast": 0,
    "Slow": 1,
    "Cars": "ZOE ZEN,레이,쏘울,Peugeot e-208 Allure,Peugeot e-2008 SUV Allure,DS3 E-tense So Chic,SMART EV Z,아이오닉,아이오닉5,i3 120Ah Lux,스파크,BOLT EV LT,Model 3,Model Y,니로EV,코나"
  },
  {
    "Place": "성내삼성 아파트",
    "Address": "서울특별시 강동구 성내동 풍성로 128",
    "Lon": 127.125443,
    "Lat": 37.53083821,
    "Fast": 1,
    "Slow": 4,
    "Cars": "ZOE ZEN,레이,쏘울,Peugeot e-208 Allure,Peugeot e-2008 SUV Allure,DS3 E-tense So Chic,SMART EV Z,아이오닉,아이오닉5,i3 120Ah Lux,스파크,BOLT EV LT,Model 3,Model Y,니로EV,코나"
  },
  {
    "Place": "신성둔촌미소지움아파트 입주자대표회의",
    "Address": "서울특별시 강동구 둔촌동 명일로 102",
    "Lon": 127.143099,
    "Lat": 37.52805136,
    "Fast": 1,
    "Slow": 2,
    "Cars": "ZOE ZEN,레이,쏘울,Peugeot e-208 Allure,Peugeot e-2008 SUV Allure,DS3 E-tense So Chic,SMART EV Z,아이오닉,아이오닉5,i3 120Ah Lux,스파크,BOLT EV LT,Model 3,Model Y,니로EV,코나"
  },
  {
    "Place": "암사라인 아파트",
    "Address": "서울특별시 강동구 암사동 고덕로 53",
    "Lon": 127.1311388,
    "Lat": 37.55497532,
    "Fast": 0,
    "Slow": 1,
    "Cars": "ZOE ZEN,레이,쏘울,Peugeot e-208 Allure,Peugeot e-2008 SUV Allure,DS3 E-tense So Chic,SMART EV Z,아이오닉,아이오닉5,i3 120Ah Lux,스파크,BOLT EV LT,Model 3,Model Y,니로EV,코나"
  },
  {
    "Place": "암펠로스타워",
    "Address": "서울특별시 강동구 둔촌동 명일로 110",
    "Lon": 127.1431655,
    "Lat": 37.52880753,
    "Fast": 0,
    "Slow": 1,
    "Cars": "ZOE ZEN,레이,쏘울,Peugeot e-208 Allure,Peugeot e-2008 SUV Allure,DS3 E-tense So Chic,SMART EV Z,아이오닉,아이오닉5,i3 120Ah Lux,스파크,BOLT EV LT,Model 3,Model Y,니로EV,코나"
  },
  {
    "Place": "천호1동 공영주차장",
    "Address": "서울특별시 강동구 구천면로 42길 60(천호동)",
    "Lon": 127.1363848,
    "Lat": 37.54467559,
    "Fast": 2,
    "Slow": 0,
    "Cars": "ZOE ZEN,레이,쏘울,Peugeot e-208 Allure,Peugeot e-2008 SUV Allure,DS3 E-tense So Chic,SMART EV Z,아이오닉,아이오닉5,i3 120Ah Lux,스파크,BOLT EV LT,Model 3,Model Y,니로EV,코나"
  },
  {
    "Place": "한강포스파크아파트",
    "Address": "서울특별시 강동구 암사동 고덕로19길 30",
    "Lon": 127.1345675,
    "Lat": 37.55605742,
    "Fast": 0,
    "Slow": 1,
    "Cars": "ZOE ZEN,레이,쏘울,Peugeot e-208 Allure,Peugeot e-2008 SUV Allure,DS3 E-tense So Chic,SMART EV Z,아이오닉,아이오닉5,i3 120Ah Lux,스파크,BOLT EV LT,Model 3,Model Y,니로EV,코나"
  },
  {
    "Place": "한강현대 아파트",
    "Address": "서울특별시 강동구 암사동 올림픽로104길 41",
    "Lon": 127.1319358,
    "Lat": 37.55592189,
    "Fast": 1,
    "Slow": 2,
    "Cars": "ZOE ZEN,레이,쏘울,Peugeot e-208 Allure,Peugeot e-2008 SUV Allure,DS3 E-tense So Chic,SMART EV Z,아이오닉,아이오닉5,i3 120Ah Lux,스파크,BOLT EV LT,Model 3,Model Y,니로EV,코나"
  },
  {
    "Place": "현대백화점 천호점",
    "Address": "서울특별시 강동구 천호대로 1005",
    "Lon": 127.1244416,
    "Lat": 37.53897536,
    "Fast": 3,
    "Slow": 0,
    "Cars": "ZOE ZEN,레이,쏘울,Peugeot e-208 Allure,Peugeot e-2008 SUV Allure,DS3 E-tense So Chic,SMART EV Z,아이오닉,아이오닉5,i3 120Ah Lux,스파크,BOLT EV LT,Model 3,Model Y,니로EV,코나"
  },
  {
    "Place": "홈플러스 강동점",
    "Address": "서울특별시 강동구 양재대로 1571",
    "Lon": 127.1422557,
    "Lat": 37.54571422,
    "Fast": 1,
    "Slow": 0,
    "Cars": "ZOE ZEN,레이,쏘울,Peugeot e-208 Allure,Peugeot e-2008 SUV Allure,DS3 E-tense So Chic,SMART EV Z,아이오닉,아이오닉5,i3 120Ah Lux,스파크,BOLT EV LT,Model 3,Model Y,니로EV,코나"
  },
  {
    "Place": "힐스테이트암사",
    "Address": "서울특별시 강동구 암사동 올림픽로91길 30",
    "Lon": 127.1257454,
    "Lat": 37.54916373,
    "Fast": 0,
    "Slow": 5,
    "Cars": "ZOE ZEN,레이,쏘울,Peugeot e-208 Allure,Peugeot e-2008 SUV Allure,DS3 E-tense So Chic,SMART EV Z,아이오닉,아이오닉5,i3 120Ah Lux,스파크,BOLT EV LT,Model 3,Model Y,니로EV,코나"
  },
  {
    "Place": "LH선수촌8단지아파트",
    "Address": "강원 강릉시 유천동 778",
    "Lon": 128.8685136,
    "Lat": 37.76173755,
    "Fast": 0,
    "Slow": 8,
    "Cars": "ZOE ZEN,레이,쏘울,Peugeot e-208 Allure,Peugeot e-2008 SUV Allure,DS3 E-tense So Chic,SMART EV Z,아이오닉,아이오닉5,i3 120Ah Lux,스파크,BOLT EV LT,Model 3,Model Y,니로EV,코나"
  },
  {
    "Place": "강남동주민센터",
    "Address": "강원도 강릉시 노암동 133",
    "Lon": 128.9055586,
    "Lat": 37.74414137,
    "Fast": 1,
    "Slow": 0,
    "Cars": "ZOE ZEN,레이,쏘울,Peugeot e-208 Allure,Peugeot e-2008 SUV Allure,DS3 E-tense So Chic,SMART EV Z,아이오닉,아이오닉5,i3 120Ah Lux,스파크,BOLT EV LT,Model 3,Model Y,니로EV,코나"
  },
  {
    "Place": "강릉 교동2차현대아파트",
    "Address": "강원도 강릉시 교동 1767",
    "Lon": 128.8804601,
    "Lat": 37.76297441,
    "Fast": 1,
    "Slow": 1,
    "Cars": "ZOE ZEN,레이,쏘울,Peugeot e-208 Allure,Peugeot e-2008 SUV Allure,DS3 E-tense So Chic,SMART EV Z,아이오닉,아이오닉5,i3 120Ah Lux,스파크,BOLT EV LT,Model 3,Model Y,니로EV,코나"
  },
  {
    "Place": "강릉금호어울림",
    "Address": "강원도 강릉시 입암동 321",
    "Lon": 128.9188953,
    "Lat": 37.75365568,
    "Fast": 1,
    "Slow": 6,
    "Cars": "ZOE ZEN,레이,쏘울,Peugeot e-208 Allure,Peugeot e-2008 SUV Allure,DS3 E-tense So Chic,SMART EV Z,아이오닉,아이오닉5,i3 120Ah Lux,스파크,BOLT EV LT,Model 3,Model Y,니로EV,코나"
  },
  {
    "Place": "강릉농협 하나로마트",
    "Address": "강원도 강릉시 성남동 26-1",
    "Lon": 128.9014611,
    "Lat": 37.75450543,
    "Fast": 1,
    "Slow": 0,
    "Cars": "ZOE ZEN,레이,쏘울,Peugeot e-208 Allure,Peugeot e-2008 SUV Allure,DS3 E-tense So Chic,SMART EV Z,아이오닉,아이오닉5,i3 120Ah Lux,스파크,BOLT EV LT,Model 3,Model Y,니로EV,코나"
  },
  {
    "Place": "강릉더샵 아파트",
    "Address": "강원도 강릉시 입암동 711",
    "Lon": 128.9095097,
    "Lat": 37.74998141,
    "Fast": 1,
    "Slow": 1,
    "Cars": "ZOE ZEN,레이,쏘울,Peugeot e-208 Allure,Peugeot e-2008 SUV Allure,DS3 E-tense So Chic,SMART EV Z,아이오닉,아이오닉5,i3 120Ah Lux,스파크,BOLT EV LT,Model 3,Model Y,니로EV,코나"
  },
  {
    "Place": "강릉축협 하나로마트",
    "Address": "강원도 강릉시 입암동 448",
    "Lon": 128.9130311,
    "Lat": 37.7539533,
    "Fast": 1,
    "Slow": 0,
    "Cars": "ZOE ZEN,레이,쏘울,Peugeot e-208 Allure,Peugeot e-2008 SUV Allure,DS3 E-tense So Chic,SMART EV Z,아이오닉,아이오닉5,i3 120Ah Lux,스파크,BOLT EV LT,Model 3,Model Y,니로EV,코나"
  },
  {
    "Place": "강릉특별지사",
    "Address": "강원도 강릉시 포남동 1255",
    "Lon": 128.9187801,
    "Lat": 37.78218846,
    "Fast": 1,
    "Slow": 3,
    "Cars": "ZOE ZEN,레이,쏘울,Peugeot e-208 Allure,Peugeot e-2008 SUV Allure,DS3 E-tense So Chic,SMART EV Z,아이오닉,아이오닉5,i3 120Ah Lux,스파크,BOLT EV LT,Model 3,Model Y,니로EV,코나"
  },
  {
    "Place": "강릉회산LH천년나무2단지",
    "Address": "강원도 강릉시 회산동 604",
    "Lon": 128.8765528,
    "Lat": 37.74277429,
    "Fast": 1,
    "Slow": 0,
    "Cars": "ZOE ZEN,레이,쏘울,Peugeot e-208 Allure,Peugeot e-2008 SUV Allure,DS3 E-tense So Chic,SMART EV Z,아이오닉,아이오닉5,i3 120Ah Lux,스파크,BOLT EV LT,Model 3,Model Y,니로EV,코나"
  },
  {
    "Place": "강원도교육연수원",
    "Address": "강원도 강릉시 초당동 57-18",
    "Lon": 128.9183093,
    "Lat": 37.78645541,
    "Fast": 1,
    "Slow": 0,
    "Cars": "ZOE ZEN,Model 3,Model Y"
  },
  {
    "Place": "강원양돈농협 하나로마트",
    "Address": "강원도 강릉시 교동 1888-3",
    "Lon": 128.877249,
    "Lat": 37.76334647,
    "Fast": 1,
    "Slow": 0,
    "Cars": "ZOE ZEN,레이,쏘울,Peugeot e-208 Allure,Peugeot e-2008 SUV Allure,DS3 E-tense So Chic,SMART EV Z,아이오닉,아이오닉5,i3 120Ah Lux,스파크,BOLT EV LT,Model 3,Model Y,니로EV,코나"
  },
  {
    "Place": "경포해수욕장",
    "Address": "강원도 강릉시 안현동 868-2",
    "Lon": 128.9033731,
    "Lat": 37.80249341,
    "Fast": 1,
    "Slow": 0,
    "Cars": "ZOE ZEN,Model 3,Model Y"
  },
  {
    "Place": "교1동주민센터",
    "Address": "강원도 강릉시 교동 1874-3",
    "Lon": 128.8744949,
    "Lat": 37.7655598,
    "Fast": 1,
    "Slow": 0,
    "Cars": "ZOE ZEN,레이,쏘울,Peugeot e-208 Allure,Peugeot e-2008 SUV Allure,DS3 E-tense So Chic,SMART EV Z,아이오닉,아이오닉5,i3 120Ah Lux,스파크,BOLT EV LT,Model 3,Model Y,니로EV,코나"
  },
  {
    "Place": "교2동주민센터",
    "Address": "강원도 강릉시 교동 723-5",
    "Lon": 128.8922203,
    "Lat": 37.76793018,
    "Fast": 1,
    "Slow": 0,
    "Cars": "ZOE ZEN,레이,쏘울,Peugeot e-208 Allure,Peugeot e-2008 SUV Allure,DS3 E-tense So Chic,SMART EV Z,아이오닉,아이오닉5,i3 120Ah Lux,스파크,BOLT EV LT,Model 3,Model Y,니로EV,코나"
  },
  {
    "Place": "교동e-편한세상 아파트",
    "Address": "강원도 강릉시 교동 357",
    "Lon": 128.8953728,
    "Lat": 37.77069568,
    "Fast": 1,
    "Slow": 2,
    "Cars": "ZOE ZEN,레이,쏘울,Peugeot e-208 Allure,Peugeot e-2008 SUV Allure,DS3 E-tense So Chic,SMART EV Z,아이오닉,아이오닉5,i3 120Ah Lux,스파크,BOLT EV LT,Model 3,Model Y,니로EV,코나"
  },
  {
    "Place": "그린내하우스",
    "Address": "강원 강릉시 입암동 97-13",
    "Lon": 128.9190717,
    "Lat": 37.76077611,
    "Fast": 0,
    "Slow": 1,
    "Cars": "레이,쏘울,Peugeot e-208 Allure,Peugeot e-2008 SUV Allure,DS3 E-tense So Chic,SMART EV Z,아이오닉,아이오닉5,i3 120Ah Lux,스파크,BOLT EV LT,니로EV,코나"
  },
  {
    "Place": "기산그린타운연립",
    "Address": "강원 강릉시 내곡동 267",
    "Lon": 128.8809169,
    "Lat": 37.73442717,
    "Fast": 0,
    "Slow": 2,
    "Cars": "ZOE ZEN,레이,쏘울,Peugeot e-208 Allure,Peugeot e-2008 SUV Allure,DS3 E-tense So Chic,SMART EV Z,아이오닉,아이오닉5,i3 120Ah Lux,스파크,BOLT EV LT,Model 3,Model Y,니로EV,코나"
  },
  {
    "Place": "녹색도시체험센터",
    "Address": "강원도 강릉시 운정동 484",
    "Lon": 128.9063019,
    "Lat": 37.78990718,
    "Fast": 3,
    "Slow": 0,
    "Cars": "ZOE ZEN,레이,쏘울,Peugeot e-208 Allure,Peugeot e-2008 SUV Allure,DS3 E-tense So Chic,SMART EV Z,아이오닉,아이오닉5,i3 120Ah Lux,스파크,BOLT EV LT,Model 3,Model Y,니로EV,코나"
  },
  {
    "Place": "보헤미안박이추 커피공장",
    "Address": "강원도 강릉시 사천면 사천진리 285-11",
    "Lon": 128.8668299,
    "Lat": 37.84694029,
    "Fast": 1,
    "Slow": 0,
    "Cars": "ZOE ZEN,레이,쏘울,Peugeot e-208 Allure,Peugeot e-2008 SUV Allure,DS3 E-tense So Chic,SMART EV Z,아이오닉,아이오닉5,i3 120Ah Lux,스파크,BOLT EV LT,Model 3,Model Y,니로EV,코나"
  },
  {
    "Place": "삼우골든아파트",
    "Address": "강원도 강릉시 포남동 898-17",
    "Lon": 128.9060596,
    "Lat": 37.76068198,
    "Fast": 0,
    "Slow": 1,
    "Cars": "ZOE ZEN,레이,쏘울,Peugeot e-208 Allure,Peugeot e-2008 SUV Allure,DS3 E-tense So Chic,SMART EV Z,아이오닉,아이오닉5,i3 120Ah Lux,스파크,BOLT EV LT,Model 3,Model Y,니로EV,코나"
  },
  {
    "Place": "서희스타힐스리버파크",
    "Address": "강원도 강릉시 회산로 344 (회산동, 서희스타힐스 리버파크 아파트)",
    "Lon": 128.8654378,
    "Lat": 37.7379552,
    "Fast": 1,
    "Slow": 0,
    "Cars": "ZOE ZEN,레이,쏘울,Peugeot e-208 Allure,Peugeot e-2008 SUV Allure,DS3 E-tense So Chic,SMART EV Z,아이오닉,아이오닉5,i3 120Ah Lux,스파크,BOLT EV LT,Model 3,Model Y,니로EV,코나"
  },
  {
    "Place": "성덕동주민센터",
    "Address": "강원도 강릉시 입암동 599",
    "Lon": 128.913728,
    "Lat": 37.7635214,
    "Fast": 1,
    "Slow": 0,
    "Cars": "ZOE ZEN,레이,쏘울,Peugeot e-208 Allure,Peugeot e-2008 SUV Allure,DS3 E-tense So Chic,SMART EV Z,아이오닉,아이오닉5,i3 120Ah Lux,스파크,BOLT EV LT,Model 3,Model Y,니로EV,코나"
  },
  {
    "Place": "송정동주민센터",
    "Address": "강원도 강릉시 송정동 161-2",
    "Lon": 128.9276842,
    "Lat": 37.77437693,
    "Fast": 1,
    "Slow": 0,
    "Cars": "ZOE ZEN,레이,쏘울,Peugeot e-208 Allure,Peugeot e-2008 SUV Allure,DS3 E-tense So Chic,SMART EV Z,아이오닉,아이오닉5,i3 120Ah Lux,스파크,BOLT EV LT,Model 3,Model Y,니로EV,코나"
  },
  {
    "Place": "옥계면사무소",
    "Address": "강원도 강릉시 옥계면 현내리 310",
    "Lon": 129.0380475,
    "Lat": 37.61254769,
    "Fast": 1,
    "Slow": 0,
    "Cars": "ZOE ZEN,레이,쏘울,Peugeot e-208 Allure,Peugeot e-2008 SUV Allure,DS3 E-tense So Chic,SMART EV Z,아이오닉,아이오닉5,i3 120Ah Lux,스파크,BOLT EV LT,Model 3,Model Y,니로EV,코나"
  },
  {
    "Place": "이마트 강릉점",
    "Address": "강원도 강릉시 송정동 612-11",
    "Lon": 128.9221614,
    "Lat": 37.77128352,
    "Fast": 2,
    "Slow": 0,
    "Cars": "ZOE ZEN,레이,쏘울,Peugeot e-208 Allure,Peugeot e-2008 SUV Allure,DS3 E-tense So Chic,SMART EV Z,아이오닉,아이오닉5,i3 120Ah Lux,스파크,BOLT EV LT,Model 3,Model Y,니로EV,코나"
  },
  {
    "Place": "주문진해수욕장",
    "Address": "강원도 강릉시 주문진읍 향호리 8-17",
    "Lon": 128.8178535,
    "Lat": 37.91021006,
    "Fast": 1,
    "Slow": 0,
    "Cars": "ZOE ZEN,레이,쏘울,Peugeot e-208 Allure,Peugeot e-2008 SUV Allure,DS3 E-tense So Chic,SMART EV Z,아이오닉,아이오닉5,i3 120Ah Lux,스파크,BOLT EV LT,Model 3,Model Y,니로EV,코나"
  },
  {
    "Place": "청송 아파트",
    "Address": "강원도 강릉시 하평2길 6 (포남동, 청송아파트 상가)",
    "Lon": 128.9125974,
    "Lat": 37.77077749,
    "Fast": 1,
    "Slow": 0,
    "Cars": "ZOE ZEN,레이,쏘울,Peugeot e-208 Allure,Peugeot e-2008 SUV Allure,DS3 E-tense So Chic,SMART EV Z,아이오닉,아이오닉5,i3 120Ah Lux,스파크,BOLT EV LT,Model 3,Model Y,니로EV,코나"
  },
  {
    "Place": "포남2주공아파트",
    "Address": "강원 강릉시 포남동 1209",
    "Lon": 128.9166336,
    "Lat": 37.7805954,
    "Fast": 0,
    "Slow": 1,
    "Cars": "ZOE ZEN,레이,쏘울,Peugeot e-208 Allure,Peugeot e-2008 SUV Allure,DS3 E-tense So Chic,SMART EV Z,아이오닉,아이오닉5,i3 120Ah Lux,스파크,BOLT EV LT,Model 3,Model Y,니로EV,코나"
  },
  {
    "Place": "하이빌현대아파트",
    "Address": "강원 강릉시 교동 1759",
    "Lon": 128.8833841,
    "Lat": 37.76527911,
    "Fast": 0,
    "Slow": 4,
    "Cars": "ZOE ZEN,레이,쏘울,Peugeot e-208 Allure,Peugeot e-2008 SUV Allure,DS3 E-tense So Chic,SMART EV Z,아이오닉,아이오닉5,i3 120Ah Lux,스파크,BOLT EV LT,Model 3,Model Y,니로EV,코나"
  },
  {
    "Place": "해람중학교옆 공영주차장",
    "Address": "강원도 강릉시 용강동 46-2",
    "Lon": 128.8894465,
    "Lat": 37.75301232,
    "Fast": 1,
    "Slow": 0,
    "Cars": "ZOE ZEN,레이,쏘울,Peugeot e-208 Allure,Peugeot e-2008 SUV Allure,DS3 E-tense So Chic,SMART EV Z,아이오닉,아이오닉5,i3 120Ah Lux,스파크,BOLT EV LT,Model 3,Model Y,니로EV,코나"
  },
  {
    "Place": "허균허난설헌기념공원",
    "Address": "강원도 강릉시 초당동 390",
    "Lon": 128.9099975,
    "Lat": 37.79115362,
    "Fast": 1,
    "Slow": 0,
    "Cars": "ZOE ZEN,레이,쏘울,Peugeot e-208 Allure,Peugeot e-2008 SUV Allure,DS3 E-tense So Chic,SMART EV Z,아이오닉,아이오닉5,i3 120Ah Lux,스파크,BOLT EV LT,Model 3,Model Y,니로EV,코나"
  },
  {
    "Place": "홈플러스 강릉점",
    "Address": "강원도 강릉시 옥천동 189",
    "Lon": 128.898649,
    "Lat": 37.75571432,
    "Fast": 1,
    "Slow": 0,
    "Cars": "ZOE ZEN,레이,쏘울,Peugeot e-208 Allure,Peugeot e-2008 SUV Allure,DS3 E-tense So Chic,SMART EV Z,아이오닉,아이오닉5,i3 120Ah Lux,스파크,BOLT EV LT,Model 3,Model Y,니로EV,코나"
  },
  {
    "Place": "홍제동 공영주차장",
    "Address": "강원도 강릉시 홍제동 157",
    "Lon": 128.8826076,
    "Lat": 37.75343224,
    "Fast": 1,
    "Slow": 0,
    "Cars": "ZOE ZEN,레이,쏘울,Peugeot e-208 Allure,Peugeot e-2008 SUV Allure,DS3 E-tense So Chic,SMART EV Z,아이오닉,아이오닉5,i3 120Ah Lux,스파크,BOLT EV LT,Model 3,Model Y,니로EV,코나"
  },
  {
    "Place": "홍제힐스테이트",
    "Address": "강원도 강릉시 홍제동 1007",
    "Lon": 128.8816855,
    "Lat": 37.75088812,
    "Fast": 1,
    "Slow": 1,
    "Cars": "ZOE ZEN,레이,쏘울,Peugeot e-208 Allure,Peugeot e-2008 SUV Allure,DS3 E-tense So Chic,SMART EV Z,아이오닉,아이오닉5,i3 120Ah Lux,스파크,BOLT EV LT,Model 3,Model Y,니로EV,코나"
  },
  {
    "Place": "강북문화예술회관",
    "Address": "서울특별시 강북구 수유동 360-10",
    "Lon": 127.0134007,
    "Lat": 37.64078086,
    "Fast": 1,
    "Slow": 0,
    "Cars": "ZOE ZEN,Model 3,Model Y"
  },
  {
    "Place": "강북성북지사",
    "Address": "서울특별시 강북구 미아동 190-1",
    "Lon": 127.0249181,
    "Lat": 37.63055896,
    "Fast": 1,
    "Slow": 7,
    "Cars": "ZOE ZEN,Model 3,Model Y"
  },
  {
    "Place": "강북성북지사(공용)",
    "Address": "서울특별시 강북구 미아동 190-1",
    "Lon": 127.0249181,
    "Lat": 37.63055896,
    "Fast": 3,
    "Slow": 2,
    "Cars": "ZOE ZEN,레이,쏘울,Peugeot e-208 Allure,Peugeot e-2008 SUV Allure,DS3 E-tense So Chic,SMART EV Z,아이오닉,아이오닉5,i3 120Ah Lux,스파크,BOLT EV LT,Model 3,Model Y,니로EV,코나"
  },
  {
    "Place": "래미안미아1차 아파트",
    "Address": "서울특별시 강북구 미아동 797",
    "Lon": 127.0193786,
    "Lat": 37.62596691,
    "Fast": 1,
    "Slow": 1,
    "Cars": "ZOE ZEN,레이,쏘울,Peugeot e-208 Allure,Peugeot e-2008 SUV Allure,DS3 E-tense So Chic,SMART EV Z,아이오닉,아이오닉5,i3 120Ah Lux,스파크,BOLT EV LT,Model 3,Model Y,니로EV,코나"
  },
  {
    "Place": "미아동부센트레빌",
    "Address": "서울특별시 강북구 미아동 474",
    "Lon": 127.0256822,
    "Lat": 37.61366714,
    "Fast": 1,
    "Slow": 2,
    "Cars": "ZOE ZEN,레이,쏘울,Peugeot e-208 Allure,Peugeot e-2008 SUV Allure,DS3 E-tense So Chic,SMART EV Z,아이오닉,아이오닉5,i3 120Ah Lux,스파크,BOLT EV LT,Model 3,Model Y,니로EV,코나"
  },
  {
    "Place": "미아한일유앤아이APT",
    "Address": "서울특별시 강북구 미아동 1355",
    "Lon": 127.0365537,
    "Lat": 37.61481595,
    "Fast": 0,
    "Slow": 2,
    "Cars": "ZOE ZEN,레이,쏘울,Peugeot e-208 Allure,Peugeot e-2008 SUV Allure,DS3 E-tense So Chic,SMART EV Z,아이오닉,아이오닉5,i3 120Ah Lux,스파크,BOLT EV LT,Model 3,Model Y,니로EV,코나"
  },
  {
    "Place": "북서울꿈의숲",
    "Address": "서울특별시 강북구 월계로 173",
    "Lon": 127.0443205,
    "Lat": 37.62136158,
    "Fast": 2,
    "Slow": 0,
    "Cars": "ZOE ZEN,Model 3,Model Y"
  },
  {
    "Place": "해모로아파트",
    "Address": "서울특별시 강북구 번동 139",
    "Lon": 127.0374917,
    "Lat": 37.62637217,
    "Fast": 1,
    "Slow": 0,
    "Cars": "ZOE ZEN,레이,쏘울,Peugeot e-208 Allure,Peugeot e-2008 SUV Allure,DS3 E-tense So Chic,SMART EV Z,아이오닉,아이오닉5,i3 120Ah Lux,스파크,BOLT EV LT,Model 3,Model Y,니로EV,코나"
  },
  {
    "Place": "효성네오인텔리안",
    "Address": "서울특별시 강북구 번동 418-3",
    "Lon": 127.0270128,
    "Lat": 37.63866563,
    "Fast": 0,
    "Slow": 2,
    "Cars": "ZOE ZEN,레이,쏘울,Peugeot e-208 Allure,Peugeot e-2008 SUV Allure,DS3 E-tense So Chic,SMART EV Z,아이오닉,아이오닉5,i3 120Ah Lux,스파크,BOLT EV LT,Model 3,Model Y,니로EV,코나"
  },
  {
    "Place": "e편한세상염창",
    "Address": "서울 강서구 염창동 309",
    "Lon": 126.8707231,
    "Lat": 37.54900344,
    "Fast": 0,
    "Slow": 5,
    "Cars": "ZOE ZEN,레이,쏘울,Peugeot e-208 Allure,Peugeot e-2008 SUV Allure,DS3 E-tense So Chic,SMART EV Z,아이오닉,아이오닉5,i3 120Ah Lux,스파크,BOLT EV LT,Model 3,Model Y,니로EV,코나"
  },
  {
    "Place": "강서구청 주차장",
    "Address": "부산광역시 강서구 낙동북로 477",
    "Lon": 128.9805197,
    "Lat": 35.21180985,
    "Fast": 2,
    "Slow": 0,
    "Cars": "ZOE ZEN,Model 3,Model Y"
  },
  {
    "Place": "강서한강자이아파트",
    "Address": "서울특별시 강서구 가양동 양천로55길 55",
    "Lon": 126.8501051,
    "Lat": 37.56710834,
    "Fast": 1,
    "Slow": 1,
    "Cars": "ZOE ZEN,레이,쏘울,Peugeot e-208 Allure,Peugeot e-2008 SUV Allure,DS3 E-tense So Chic,SMART EV Z,아이오닉,아이오닉5,i3 120Ah Lux,스파크,BOLT EV LT,Model 3,Model Y,니로EV,코나"
  },
  {
    "Place": "녹산산단 공영주차장",
    "Address": "부산광역시 강서구 송정동 1759",
    "Lon": 128.840254,
    "Lat": 35.08406109,
    "Fast": 1,
    "Slow": 0,
    "Cars": "ZOE ZEN,레이,쏘울,Peugeot e-208 Allure,Peugeot e-2008 SUV Allure,DS3 E-tense So Chic,SMART EV Z,아이오닉,아이오닉5,i3 120Ah Lux,스파크,BOLT EV LT,Model 3,Model Y,니로EV,코나"
  },
  {
    "Place": "마곡13단지 힐스테이트마스터",
    "Address": "서울특별시 강서구 마곡동 748",
    "Lon": 126.8184952,
    "Lat": 37.57082479,
    "Fast": 1,
    "Slow": 2,
    "Cars": "ZOE ZEN,레이,쏘울,Peugeot e-208 Allure,Peugeot e-2008 SUV Allure,DS3 E-tense So Chic,SMART EV Z,아이오닉,아이오닉5,i3 120Ah Lux,스파크,BOLT EV LT,Model 3,Model Y,니로EV,코나"
  },
  {
    "Place": "마곡수명산파크1단지",
    "Address": "서울특별시 강서구 내발산동 742",
    "Lon": 126.8301809,
    "Lat": 37.55436597,
    "Fast": 1,
    "Slow": 2,
    "Cars": "ZOE ZEN,레이,쏘울,Peugeot e-208 Allure,Peugeot e-2008 SUV Allure,DS3 E-tense So Chic,SMART EV Z,아이오닉,아이오닉5,i3 120Ah Lux,스파크,BOLT EV LT,Model 3,Model Y,니로EV,코나"
  },
  {
    "Place": "마곡수명산파크3단지",
    "Address": "서울특별시 강서구 내발산동 751",
    "Lon": 126.8248871,
    "Lat": 37.55280716,
    "Fast": 1,
    "Slow": 1,
    "Cars": "ZOE ZEN,레이,쏘울,Peugeot e-208 Allure,Peugeot e-2008 SUV Allure,DS3 E-tense So Chic,SMART EV Z,아이오닉,아이오닉5,i3 120Ah Lux,스파크,BOLT EV LT,Model 3,Model Y,니로EV,코나"
  },
  {
    "Place": "마곡수명산파크5단지",
    "Address": "서울특별시 강서구 내발산동 749",
    "Lon": 126.8270428,
    "Lat": 37.55197748,
    "Fast": 1,
    "Slow": 2,
    "Cars": "ZOE ZEN,레이,쏘울,Peugeot e-208 Allure,Peugeot e-2008 SUV Allure,DS3 E-tense So Chic,SMART EV Z,아이오닉,아이오닉5,i3 120Ah Lux,스파크,BOLT EV LT,Model 3,Model Y,니로EV,코나"
  },
  {
    "Place": "마곡수명산파크6단지",
    "Address": "서울특별시 강서구 내발산동 수명로2길 63",
    "Lon": 126.8255367,
    "Lat": 37.55047824,
    "Fast": 1,
    "Slow": 1,
    "Cars": "ZOE ZEN,레이,쏘울,Peugeot e-208 Allure,Peugeot e-2008 SUV Allure,DS3 E-tense So Chic,SMART EV Z,아이오닉,아이오닉5,i3 120Ah Lux,스파크,BOLT EV LT,Model 3,Model Y,니로EV,코나"
  },
  {
    "Place": "마곡수명산파크7단지",
    "Address": "서울특별시 강서구 내발산동 수명로2가길 22",
    "Lon": 126.8231255,
    "Lat": 37.54787876,
    "Fast": 1,
    "Slow": 3,
    "Cars": "ZOE ZEN,레이,쏘울,Peugeot e-208 Allure,Peugeot e-2008 SUV Allure,DS3 E-tense So Chic,SMART EV Z,아이오닉,아이오닉5,i3 120Ah Lux,스파크,BOLT EV LT,Model 3,Model Y,니로EV,코나"
  },
  {
    "Place": "마곡수명산파크8단지",
    "Address": "서울 강서구 내발산동 745",
    "Lon": 126.8286268,
    "Lat": 37.55164572,
    "Fast": 0,
    "Slow": 1,
    "Cars": "ZOE ZEN,레이,쏘울,Peugeot e-208 Allure,Peugeot e-2008 SUV Allure,DS3 E-tense So Chic,SMART EV Z,아이오닉,아이오닉5,i3 120Ah Lux,스파크,BOLT EV LT,Model 3,Model Y,니로EV,코나"
  },
  {
    "Place": "마곡엠밸리11단지아파트",
    "Address": "서울특별시 강서구 마곡동 공항대로 124",
    "Lon": 126.8212474,
    "Lat": 37.55883497,
    "Fast": 0,
    "Slow": 2,
    "Cars": "레이,쏘울,Peugeot e-208 Allure,Peugeot e-2008 SUV Allure,DS3 E-tense So Chic,SMART EV Z,아이오닉,아이오닉5,i3 120Ah Lux,스파크,BOLT EV LT,니로EV,코나"
  },
  {
    "Place": "마곡엠밸리2단지",
    "Address": "서울특별시 강서구 마곡동 마곡서1로 146",
    "Lon": 126.8214129,
    "Lat": 37.56882845,
    "Fast": 0,
    "Slow": 3,
    "Cars": "ZOE ZEN,레이,쏘울,Peugeot e-208 Allure,Peugeot e-2008 SUV Allure,DS3 E-tense So Chic,SMART EV Z,아이오닉,아이오닉5,i3 120Ah Lux,스파크,BOLT EV LT,Model 3,Model Y,니로EV,코나"
  },
  {
    "Place": "마곡엠밸리3단지",
    "Address": "서울특별시 강서구 마곡동 736",
    "Lon": 126.8184952,
    "Lat": 37.57082479,
    "Fast": 1,
    "Slow": 2,
    "Cars": "ZOE ZEN,레이,쏘울,Peugeot e-208 Allure,Peugeot e-2008 SUV Allure,DS3 E-tense So Chic,SMART EV Z,아이오닉,아이오닉5,i3 120Ah Lux,스파크,BOLT EV LT,Model 3,Model Y,니로EV,코나"
  },
  {
    "Place": "마곡엠밸리6단지",
    "Address": "서울특별시 강서구 마곡동 743",
    "Lon": 126.8184952,
    "Lat": 37.57082479,
    "Fast": 1,
    "Slow": 4,
    "Cars": "ZOE ZEN,레이,쏘울,Peugeot e-208 Allure,Peugeot e-2008 SUV Allure,DS3 E-tense So Chic,SMART EV Z,아이오닉,아이오닉5,i3 120Ah Lux,스파크,BOLT EV LT,Model 3,Model Y,니로EV,코나"
  },
  {
    "Place": "마곡엠밸리8단지",
    "Address": "서울특별시 강서구 마곡동 마곡서1로 81",
    "Lon": 126.8192381,
    "Lat": 37.56300003,
    "Fast": 1,
    "Slow": 0,
    "Cars": "ZOE ZEN,레이,쏘울,Peugeot e-208 Allure,Peugeot e-2008 SUV Allure,DS3 E-tense So Chic,SMART EV Z,아이오닉,아이오닉5,i3 120Ah Lux,스파크,BOLT EV LT,Model 3,Model Y,니로EV,코나"
  },
  {
    "Place": "마곡힐스테이트",
    "Address": "서울특별시 강서구 마곡동 725-1",
    "Lon": 126.8178078,
    "Lat": 37.56401758,
    "Fast": 1,
    "Slow": 3,
    "Cars": "ZOE ZEN,레이,쏘울,Peugeot e-208 Allure,Peugeot e-2008 SUV Allure,DS3 E-tense So Chic,SMART EV Z,아이오닉,아이오닉5,i3 120Ah Lux,스파크,BOLT EV LT,Model 3,Model Y,니로EV,코나"
  },
  {
    "Place": "명지국제호반베르디움1차",
    "Address": "부산광역시 강서구 명지동 3415",
    "Lon": 128.9186891,
    "Lat": 35.09664144,
    "Fast": 1,
    "Slow": 2,
    "Cars": "ZOE ZEN,레이,쏘울,Peugeot e-208 Allure,Peugeot e-2008 SUV Allure,DS3 E-tense So Chic,SMART EV Z,아이오닉,아이오닉5,i3 120Ah Lux,스파크,BOLT EV LT,Model 3,Model Y,니로EV,코나"
  },
  {
    "Place": "명지롯데캐슬 아파트",
    "Address": "부산광역시 강서구 명지동 3244",
    "Lon": 128.9060841,
    "Lat": 35.08317518,
    "Fast": 1,
    "Slow": 0,
    "Cars": "ZOE ZEN,레이,쏘울,Peugeot e-208 Allure,Peugeot e-2008 SUV Allure,DS3 E-tense So Chic,SMART EV Z,아이오닉,아이오닉5,i3 120Ah Lux,스파크,BOLT EV LT,Model 3,Model Y,니로EV,코나"
  },
  {
    "Place": "명지위브포세이돈",
    "Address": "부산광역시 강서구 명지동 3234",
    "Lon": 128.8977875,
    "Lat": 35.08314313,
    "Fast": 1,
    "Slow": 4,
    "Cars": "ZOE ZEN,레이,쏘울,Peugeot e-208 Allure,Peugeot e-2008 SUV Allure,DS3 E-tense So Chic,SMART EV Z,아이오닉,아이오닉5,i3 120Ah Lux,스파크,BOLT EV LT,Model 3,Model Y,니로EV,코나"
  },
  {
    "Place": "방화5단지 아파트",
    "Address": "서울특별시 강서구 방화동 금낭화로 287-19",
    "Lon": 126.8096006,
    "Lat": 37.57691708,
    "Fast": 1,
    "Slow": 3,
    "Cars": "ZOE ZEN,레이,쏘울,Peugeot e-208 Allure,Peugeot e-2008 SUV Allure,DS3 E-tense So Chic,SMART EV Z,아이오닉,아이오닉5,i3 120Ah Lux,스파크,BOLT EV LT,Model 3,Model Y,니로EV,코나"
  },
  {
    "Place": "방화동부센트레빌",
    "Address": "서울특별시 강서구 방화동 875",
    "Lon": 126.8149503,
    "Lat": 37.57469022,
    "Fast": 1,
    "Slow": 0,
    "Cars": "ZOE ZEN,레이,쏘울,Peugeot e-208 Allure,Peugeot e-2008 SUV Allure,DS3 E-tense So Chic,SMART EV Z,아이오닉,아이오닉5,i3 120Ah Lux,스파크,BOLT EV LT,Model 3,Model Y,니로EV,코나"
  },
  {
    "Place": "방화동성아파트",
    "Address": "서울특별시 강서구 방화동 금낭화로23길 8",
    "Lon": 126.8122211,
    "Lat": 37.57974004,
    "Fast": 1,
    "Slow": 3,
    "Cars": "ZOE ZEN,레이,쏘울,Peugeot e-208 Allure,Peugeot e-2008 SUV Allure,DS3 E-tense So Chic,SMART EV Z,아이오닉,아이오닉5,i3 120Ah Lux,스파크,BOLT EV LT,Model 3,Model Y,니로EV,코나"
  },
  {
    "Place": "엘크루블루오션C2",
    "Address": "부산광역시 강서구 명지동 3243",
    "Lon": 128.9093979,
    "Lat": 35.08303929,
    "Fast": 1,
    "Slow": 1,
    "Cars": "ZOE ZEN,레이,쏘울,Peugeot e-208 Allure,Peugeot e-2008 SUV Allure,DS3 E-tense So Chic,SMART EV Z,아이오닉,아이오닉5,i3 120Ah Lux,스파크,BOLT EV LT,Model 3,Model Y,니로EV,코나"
  },
  {
    "Place": "엘크루솔마레 아파트",
    "Address": "부산광역시 강서구 명지동 3235",
    "Lon": 128.8972068,
    "Lat": 35.08091331,
    "Fast": 1,
    "Slow": 0,
    "Cars": "ZOE ZEN,레이,쏘울,Peugeot e-208 Allure,Peugeot e-2008 SUV Allure,DS3 E-tense So Chic,SMART EV Z,아이오닉,아이오닉5,i3 120Ah Lux,스파크,BOLT EV LT,Model 3,Model Y,니로EV,코나"
  },
  {
    "Place": "염창힐스테이트 아파트",
    "Address": "서울특별시 강서구 염창동 306",
    "Lon": 126.8735272,
    "Lat": 37.55137328,
    "Fast": 0,
    "Slow": 1,
    "Cars": "ZOE ZEN,레이,쏘울,Peugeot e-208 Allure,Peugeot e-2008 SUV Allure,DS3 E-tense So Chic,SMART EV Z,아이오닉,아이오닉5,i3 120Ah Lux,스파크,BOLT EV LT,Model 3,Model Y,니로EV,코나"
  },
  {
    "Place": "퀸덤1차 링컨타운",
    "Address": "부산광역시 강서구 명지동 3231",
    "Lon": 128.8977982,
    "Lat": 35.08550539,
    "Fast": 1,
    "Slow": 4,
    "Cars": "ZOE ZEN,레이,쏘울,Peugeot e-208 Allure,Peugeot e-2008 SUV Allure,DS3 E-tense So Chic,SMART EV Z,아이오닉,아이오닉5,i3 120Ah Lux,스파크,BOLT EV LT,Model 3,Model Y,니로EV,코나"
  },
  {
    "Place": "퀸덤1차 아인슈타인타운",
    "Address": "부산광역시 강서구 명지동 3232",
    "Lon": 128.9018213,
    "Lat": 35.08561351,
    "Fast": 1,
    "Slow": 4,
    "Cars": "ZOE ZEN,레이,쏘울,Peugeot e-208 Allure,Peugeot e-2008 SUV Allure,DS3 E-tense So Chic,SMART EV Z,아이오닉,아이오닉5,i3 120Ah Lux,스파크,BOLT EV LT,Model 3,Model Y,니로EV,코나"
  },
  {
    "Place": "퀸덤1차 에디슨타운",
    "Address": "부산광역시 강서구 명지동 3230-11",
    "Lon": 128.898007,
    "Lat": 35.08750083,
    "Fast": 1,
    "Slow": 3,
    "Cars": "ZOE ZEN,레이,쏘울,Peugeot e-208 Allure,Peugeot e-2008 SUV Allure,DS3 E-tense So Chic,SMART EV Z,아이오닉,아이오닉5,i3 120Ah Lux,스파크,BOLT EV LT,Model 3,Model Y,니로EV,코나"
  },
  {
    "Place": "한국공항공사 서울",
    "Address": "서울특별시 강서구 방화동 886",
    "Lon": 126.8029664,
    "Lat": 37.56504719,
    "Fast": 4,
    "Slow": 0,
    "Cars": "ZOE ZEN,레이,쏘울,Peugeot e-208 Allure,Peugeot e-2008 SUV Allure,DS3 E-tense So Chic,SMART EV Z,아이오닉,아이오닉5,i3 120Ah Lux,스파크,BOLT EV LT,Model 3,Model Y,니로EV,코나"
  },
  {
    "Place": "한사랑2차삼성 아파트",
    "Address": "서울특별시 강서구 공항대로59길 64",
    "Lon": 126.8635639,
    "Lat": 37.55436349,
    "Fast": 1,
    "Slow": 2,
    "Cars": "ZOE ZEN,레이,쏘울,Peugeot e-208 Allure,Peugeot e-2008 SUV Allure,DS3 E-tense So Chic,SMART EV Z,아이오닉,아이오닉5,i3 120Ah Lux,스파크,BOLT EV LT,Model 3,Model Y,니로EV,코나"
  },
  {
    "Place": "화곡초록 아파트",
    "Address": "서울특별시 강서구 화곡동 1139",
    "Lon": 126.8335981,
    "Lat": 37.54567241,
    "Fast": 1,
    "Slow": 0,
    "Cars": "ZOE ZEN,레이,쏘울,Peugeot e-208 Allure,Peugeot e-2008 SUV Allure,DS3 E-tense So Chic,SMART EV Z,아이오닉,아이오닉5,i3 120Ah Lux,스파크,BOLT EV LT,Model 3,Model Y,니로EV,코나"
  },
  {
    "Place": "강진지사",
    "Address": "전라남도 강진군 강진읍 동성리 123",
    "Lon": 126.7778366,
    "Lat": 34.63506691,
    "Fast": 1,
    "Slow": 0,
    "Cars": "ZOE ZEN,레이,쏘울,Peugeot e-208 Allure,Peugeot e-2008 SUV Allure,DS3 E-tense So Chic,SMART EV Z,아이오닉,아이오닉5,i3 120Ah Lux,스파크,BOLT EV LT,Model 3,Model Y,니로EV,코나"
  },
  {
    "Place": "강화군청",
    "Address": "인천광역시 강화군 강화읍 관청리 163",
    "Lon": 126.4870652,
    "Lat": 37.7473679,
    "Fast": 1,
    "Slow": 0,
    "Cars": "ZOE ZEN,레이,쏘울,Peugeot e-208 Allure,Peugeot e-2008 SUV Allure,DS3 E-tense So Chic,SMART EV Z,아이오닉,아이오닉5,i3 120Ah Lux,스파크,BOLT EV LT,Model 3,Model Y,니로EV,코나"
  },
  {
    "Place": "강화지사",
    "Address": "인천광역시 강화군 강화읍 갑곳리 350",
    "Lon": 126.4981063,
    "Lat": 37.74270232,
    "Fast": 1,
    "Slow": 0,
    "Cars": "ZOE ZEN,레이,쏘울,Peugeot e-208 Allure,Peugeot e-2008 SUV Allure,DS3 E-tense So Chic,SMART EV Z,아이오닉,아이오닉5,i3 120Ah Lux,스파크,BOLT EV LT,Model 3,Model Y,니로EV,코나"
  },
  {
    "Place": "마니산국민관광지",
    "Address": "인천광역시 강화군 화도면 상방리 402-2",
    "Lon": 126.4239882,
    "Lat": 37.63293469,
    "Fast": 1,
    "Slow": 0,
    "Cars": "ZOE ZEN,레이,쏘울,Peugeot e-208 Allure,Peugeot e-2008 SUV Allure,DS3 E-tense So Chic,SMART EV Z,아이오닉,아이오닉5,i3 120Ah Lux,스파크,BOLT EV LT,Model 3,Model Y,니로EV,코나"
  },
  {
    "Place": "신문리 공영주차장",
    "Address": "인천광역시 강화군 강화읍 신문리 596",
    "Lon": 126.4784065,
    "Lat": 37.74721618,
    "Fast": 1,
    "Slow": 0,
    "Cars": "ZOE ZEN,레이,쏘울,Peugeot e-208 Allure,Peugeot e-2008 SUV Allure,DS3 E-tense So Chic,SMART EV Z,아이오닉,아이오닉5,i3 120Ah Lux,스파크,BOLT EV LT,Model 3,Model Y,니로EV,코나"
  },
  {
    "Place": "온수리 제1공영주차장",
    "Address": "인천광역시 강화군 길상면 온수리 480-7",
    "Lon": 126.4896932,
    "Lat": 37.64250972,
    "Fast": 1,
    "Slow": 0,
    "Cars": "ZOE ZEN,레이,쏘울,Peugeot e-208 Allure,Peugeot e-2008 SUV Allure,DS3 E-tense So Chic,SMART EV Z,아이오닉,아이오닉5,i3 120Ah Lux,스파크,BOLT EV LT,Model 3,Model Y,니로EV,코나"
  },
  {
    "Place": "거제2차아이파크",
    "Address": "경상남도 거제시 수양로 110 (양정동, 거제2차 IPARK)",
    "Lon": 128.6545624,
    "Lat": 34.86517279,
    "Fast": 0,
    "Slow": 2,
    "Cars": "ZOE ZEN,레이,쏘울,Peugeot e-208 Allure,Peugeot e-2008 SUV Allure,DS3 E-tense So Chic,SMART EV Z,아이오닉,아이오닉5,i3 120Ah Lux,스파크,BOLT EV LT,Model 3,Model Y,니로EV,코나"
  },
  {
    "Place": "거제농수산물종합유통센터",
    "Address": "경상남도 거제시 상동동 590-1",
    "Lon": 128.632984,
    "Lat": 34.87397436,
    "Fast": 1,
    "Slow": 0,
    "Cars": "ZOE ZEN,레이,쏘울,Peugeot e-208 Allure,Peugeot e-2008 SUV Allure,DS3 E-tense So Chic,SMART EV Z,아이오닉,아이오닉5,i3 120Ah Lux,스파크,BOLT EV LT,Model 3,Model Y,니로EV,코나"
  },
  {
    "Place": "거제면사무소",
    "Address": "경상남도 거제시 거제면 서상길 1",
    "Lon": 128.5904283,
    "Lat": 34.85122933,
    "Fast": 1,
    "Slow": 0,
    "Cars": "ZOE ZEN,레이,쏘울,Peugeot e-208 Allure,Peugeot e-2008 SUV Allure,DS3 E-tense So Chic,SMART EV Z,아이오닉,아이오닉5,i3 120Ah Lux,스파크,BOLT EV LT,Model 3,Model Y,니로EV,코나"
  },
  {
    "Place": "거제엘크루랜드마크",
    "Address": "경상남도 거제시 옥포동 서간도길 9-9",
    "Lon": 128.6902639,
    "Lat": 34.88918899,
    "Fast": 1,
    "Slow": 2,
    "Cars": "ZOE ZEN,레이,쏘울,Peugeot e-208 Allure,Peugeot e-2008 SUV Allure,DS3 E-tense So Chic,SMART EV Z,아이오닉,아이오닉5,i3 120Ah Lux,스파크,BOLT EV LT,Model 3,Model Y,니로EV,코나"
  },
  {
    "Place": "거제자이 아파트",
    "Address": "경상남도 거제시 수월동 해명로 52",
    "Lon": 128.6422904,
    "Lat": 34.89205683,
    "Fast": 1,
    "Slow": 1,
    "Cars": "ZOE ZEN,레이,쏘울,Peugeot e-208 Allure,Peugeot e-2008 SUV Allure,DS3 E-tense So Chic,SMART EV Z,아이오닉,아이오닉5,i3 120Ah Lux,스파크,BOLT EV LT,Model 3,Model Y,니로EV,코나"
  },
  {
    "Place": "거제지사",
    "Address": "경상남도 거제시 서문로 3길 21",
    "Lon": 128.6183384,
    "Lat": 34.88979872,
    "Fast": 1,
    "Slow": 3,
    "Cars": "ZOE ZEN,레이,쏘울,Peugeot e-208 Allure,Peugeot e-2008 SUV Allure,DS3 E-tense So Chic,SMART EV Z,아이오닉,아이오닉5,i3 120Ah Lux,스파크,BOLT EV LT,Model 3,Model Y,니로EV,코나"
  },
  {
    "Place": "고현e편한세상",
    "Address": "경상남도 거제시 고현동 거제대로 4500-45",
    "Lon": 128.6401153,
    "Lat": 34.8963017,
    "Fast": 1,
    "Slow": 2,
    "Cars": "ZOE ZEN,레이,쏘울,Peugeot e-208 Allure,Peugeot e-2008 SUV Allure,DS3 E-tense So Chic,SMART EV Z,아이오닉,아이오닉5,i3 120Ah Lux,스파크,BOLT EV LT,Model 3,Model Y,니로EV,코나"
  },
  {
    "Place": "덕산베스트타운 아파트",
    "Address": "경상남도 거제시 고현동 중곡로 42",
    "Lon": 128.6331535,
    "Lat": 34.89631487,
    "Fast": 2,
    "Slow": 0,
    "Cars": "ZOE ZEN,레이,쏘울,Peugeot e-208 Allure,Peugeot e-2008 SUV Allure,DS3 E-tense So Chic,SMART EV Z,아이오닉,아이오닉5,i3 120Ah Lux,스파크,BOLT EV LT,Model 3,Model Y,니로EV,코나"
  },
  {
    "Place": "덕진봄아파트",
    "Address": "경상남도 거제시 사등면 지석2길 47",
    "Lon": 128.512398,
    "Lat": 34.90684082,
    "Fast": 1,
    "Slow": 1,
    "Cars": "ZOE ZEN,레이,쏘울,Peugeot e-208 Allure,Peugeot e-2008 SUV Allure,DS3 E-tense So Chic,SMART EV Z,아이오닉,아이오닉5,i3 120Ah Lux,스파크,BOLT EV LT,Model 3,Model Y,니로EV,코나"
  },
  {
    "Place": "동부면사무소",
    "Address": "경상남도 거제시 동부면 동부로 16",
    "Lon": 128.6083549,
    "Lat": 34.82136163,
    "Fast": 1,
    "Slow": 0,
    "Cars": "ZOE ZEN,레이,쏘울,Peugeot e-208 Allure,Peugeot e-2008 SUV Allure,DS3 E-tense So Chic,SMART EV Z,아이오닉,아이오닉5,i3 120Ah Lux,스파크,BOLT EV LT,Model 3,Model Y,니로EV,코나"
  },
  {
    "Place": "동원우성 빌라트",
    "Address": "경상남도 거제시 옥포동 옥포대첩로 88",
    "Lon": 128.6970311,
    "Lat": 34.89429824,
    "Fast": 0,
    "Slow": 2,
    "Cars": "ZOE ZEN,레이,쏘울,Peugeot e-208 Allure,Peugeot e-2008 SUV Allure,DS3 E-tense So Chic,SMART EV Z,아이오닉,아이오닉5,i3 120Ah Lux,스파크,BOLT EV LT,Model 3,Model Y,니로EV,코나"
  },
  {
    "Place": "미진참사랑",
    "Address": "경상남도 거제시 아주동 탑곡로2길 17",
    "Lon": 128.6940944,
    "Lat": 34.86443598,
    "Fast": 0,
    "Slow": 2,
    "Cars": "ZOE ZEN,레이,쏘울,Peugeot e-208 Allure,Peugeot e-2008 SUV Allure,DS3 E-tense So Chic,SMART EV Z,아이오닉,아이오닉5,i3 120Ah Lux,스파크,BOLT EV LT,Model 3,Model Y,니로EV,코나"
  },
  {
    "Place": "벽산e-솔렌스힐2차",
    "Address": "경상남도 거제시 상동동 상동5길 117-16",
    "Lon": 128.6291154,
    "Lat": 34.85983139,
    "Fast": 1,
    "Slow": 1,
    "Cars": "ZOE ZEN,레이,쏘울,Peugeot e-208 Allure,Peugeot e-2008 SUV Allure,DS3 E-tense So Chic,SMART EV Z,아이오닉,아이오닉5,i3 120Ah Lux,스파크,BOLT EV LT,Model 3,Model Y,니로EV,코나"
  },
  {
    "Place": "사곡영진자이온1단지",
    "Address": "경상남도 거제시 사등면 두동로 54-42",
    "Lon": 128.5679371,
    "Lat": 34.89305061,
    "Fast": 1,
    "Slow": 3,
    "Cars": "ZOE ZEN,레이,쏘울,Peugeot e-208 Allure,Peugeot e-2008 SUV Allure,DS3 E-tense So Chic,SMART EV Z,아이오닉,아이오닉5,i3 120Ah Lux,스파크,BOLT EV LT,Model 3,Model Y,니로EV,코나"
  },
  {
    "Place": "옥명대우",
    "Address": "경상남도 거제시 능포동 능포로2길 38",
    "Lon": 128.7348002,
    "Lat": 34.87615028,
    "Fast": 0,
    "Slow": 1,
    "Cars": "ZOE ZEN,레이,쏘울,Peugeot e-208 Allure,Peugeot e-2008 SUV Allure,DS3 E-tense So Chic,SMART EV Z,아이오닉,아이오닉5,i3 120Ah Lux,스파크,BOLT EV LT,Model 3,Model Y,니로EV,코나"
  },
  {
    "Place": "옥명대우2차",
    "Address": "경상남도 거제시 능포동 능포로2길 38",
    "Lon": 128.7348002,
    "Lat": 34.87615028,
    "Fast": 1,
    "Slow": 0,
    "Cars": "ZOE ZEN,레이,쏘울,Peugeot e-208 Allure,Peugeot e-2008 SUV Allure,DS3 E-tense So Chic,SMART EV Z,아이오닉,아이오닉5,i3 120Ah Lux,스파크,BOLT EV LT,Model 3,Model Y,니로EV,코나"
  },
  {
    "Place": "청명화이트빌",
    "Address": "경상남도 거제시 양정동 거제대로 4601",
    "Lon": 128.6329611,
    "Lat": 34.89107112,
    "Fast": 0,
    "Slow": 2,
    "Cars": "ZOE ZEN,레이,쏘울,Peugeot e-208 Allure,Peugeot e-2008 SUV Allure,DS3 E-tense So Chic,SMART EV Z,아이오닉,아이오닉5,i3 120Ah Lux,스파크,BOLT EV LT,Model 3,Model Y,니로EV,코나"
  },
  {
    "Place": "포로수용소유적공원",
    "Address": "경상남도 거제시 계룡로 61",
    "Lon": 128.6236562,
    "Lat": 34.87708411,
    "Fast": 1,
    "Slow": 0,
    "Cars": "ZOE ZEN,레이,쏘울,Peugeot e-208 Allure,Peugeot e-2008 SUV Allure,DS3 E-tense So Chic,SMART EV Z,아이오닉,아이오닉5,i3 120Ah Lux,스파크,BOLT EV LT,Model 3,Model Y,니로EV,코나"
  },
  {
    "Place": "홈플러스 거제점",
    "Address": "경상남도 거제시 장평로 12",
    "Lon": 128.616402,
    "Lat": 34.89105518,
    "Fast": 1,
    "Slow": 0,
    "Cars": "ZOE ZEN,레이,쏘울,Peugeot e-208 Allure,Peugeot e-2008 SUV Allure,DS3 E-tense So Chic,SMART EV Z,아이오닉,아이오닉5,i3 120Ah Lux,스파크,BOLT EV LT,Model 3,Model Y,니로EV,코나"
  },
  {
    "Place": "거창사과원예농협 하나로마트",
    "Address": "경상남도 거창군 거창읍 수남로 2241",
    "Lon": 127.910848,
    "Lat": 35.67918222,
    "Fast": 1,
    "Slow": 0,
    "Cars": "ZOE ZEN,레이,쏘울,Peugeot e-208 Allure,Peugeot e-2008 SUV Allure,DS3 E-tense So Chic,SMART EV Z,아이오닉,아이오닉5,i3 120Ah Lux,스파크,BOLT EV LT,Model 3,Model Y,니로EV,코나"
  },
  {
    "Place": "거창지사",
    "Address": "경상남도 거창군 거창읍 강남로 246",
    "Lon": 127.9231397,
    "Lat": 35.6870211,
    "Fast": 1,
    "Slow": 1,
    "Cars": "ZOE ZEN,레이,쏘울,Peugeot e-208 Allure,Peugeot e-2008 SUV Allure,DS3 E-tense So Chic,SMART EV Z,아이오닉,아이오닉5,i3 120Ah Lux,스파크,BOLT EV LT,Model 3,Model Y,니로EV,코나"
  },
  {
    "Place": "경산3차우방 아파트",
    "Address": "경상북도 경산시 정평동 대학로12길 11-2",
    "Lon": 128.7294028,
    "Lat": 35.83272572,
    "Fast": 0,
    "Slow": 2,
    "Cars": "ZOE ZEN,레이,쏘울,Peugeot e-208 Allure,Peugeot e-2008 SUV Allure,DS3 E-tense So Chic,SMART EV Z,아이오닉,아이오닉5,i3 120Ah Lux,스파크,BOLT EV LT,Model 3,Model Y,니로EV,코나"
  },
  {
    "Place": "경산우방유쉘",
    "Address": "경상북도 경산시 옥곡동 강변서로 111",
    "Lon": 128.7321622,
    "Lat": 35.81714113,
    "Fast": 0,
    "Slow": 2,
    "Cars": "ZOE ZEN,레이,쏘울,Peugeot e-208 Allure,Peugeot e-2008 SUV Allure,DS3 E-tense So Chic,SMART EV Z,아이오닉,아이오닉5,i3 120Ah Lux,스파크,BOLT EV LT,Model 3,Model Y,니로EV,코나"
  },
  {
    "Place": "경산태왕귀빈타운",
    "Address": "경상북도 경산시 정평동 222",
    "Lon": 128.7285809,
    "Lat": 35.83156613,
    "Fast": 1,
    "Slow": 0,
    "Cars": "ZOE ZEN,레이,쏘울,Peugeot e-208 Allure,Peugeot e-2008 SUV Allure,DS3 E-tense So Chic,SMART EV Z,아이오닉,아이오닉5,i3 120Ah Lux,스파크,BOLT EV LT,Model 3,Model Y,니로EV,코나"
  },
  {
    "Place": "경산푸르지오",
    "Address": "경상북도 경산시 압량면 압독4로 12",
    "Lon": 128.7669019,
    "Lat": 35.8381862,
    "Fast": 1,
    "Slow": 3,
    "Cars": "ZOE ZEN,레이,쏘울,Peugeot e-208 Allure,Peugeot e-2008 SUV Allure,DS3 E-tense So Chic,SMART EV Z,아이오닉,아이오닉5,i3 120Ah Lux,스파크,BOLT EV LT,Model 3,Model Y,니로EV,코나"
  },
  {
    "Place": "경산하양코아루2차",
    "Address": "경상북도 경산시 하양읍 하양로37길 19",
    "Lon": 128.8275031,
    "Lat": 35.91894404,
    "Fast": 1,
    "Slow": 2,
    "Cars": "ZOE ZEN,레이,쏘울,Peugeot e-208 Allure,Peugeot e-2008 SUV Allure,DS3 E-tense So Chic,SMART EV Z,아이오닉,아이오닉5,i3 120Ah Lux,스파크,BOLT EV LT,Model 3,Model Y,니로EV,코나"
  },
  {
    "Place": "계양우방맨션",
    "Address": "경상북도 경산시 사동 595",
    "Lon": 128.7565612,
    "Lat": 35.81476639,
    "Fast": 0,
    "Slow": 2,
    "Cars": "ZOE ZEN,레이,쏘울,Peugeot e-208 Allure,Peugeot e-2008 SUV Allure,DS3 E-tense So Chic,SMART EV Z,아이오닉,아이오닉5,i3 120Ah Lux,스파크,BOLT EV LT,Model 3,Model Y,니로EV,코나"
  },
  {
    "Place": "백천신나리 아파트",
    "Address": "경상북도 경산시 백천동 경청로222길 8",
    "Lon": 128.7394939,
    "Lat": 35.80324598,
    "Fast": 1,
    "Slow": 0,
    "Cars": "ZOE ZEN,레이,쏘울,Peugeot e-208 Allure,Peugeot e-2008 SUV Allure,DS3 E-tense So Chic,SMART EV Z,아이오닉,아이오닉5,i3 120Ah Lux,스파크,BOLT EV LT,Model 3,Model Y,니로EV,코나"
  },
  {
    "Place": "사동2지구화성파크드림",
    "Address": "경상북도 경산시 사동 21",
    "Lon": 128.7524621,
    "Lat": 35.81084239,
    "Fast": 1,
    "Slow": 1,
    "Cars": "ZOE ZEN,레이,쏘울,Peugeot e-208 Allure,Peugeot e-2008 SUV Allure,DS3 E-tense So Chic,SMART EV Z,아이오닉,아이오닉5,i3 120Ah Lux,스파크,BOLT EV LT,Model 3,Model Y,니로EV,코나"
  },
  {
    "Place": "삼주봉황4차타운",
    "Address": "경상북도 경산시 진량읍 봉황길 72",
    "Lon": 128.826357,
    "Lat": 35.88265764,
    "Fast": 1,
    "Slow": 4,
    "Cars": "ZOE ZEN,레이,쏘울,Peugeot e-208 Allure,Peugeot e-2008 SUV Allure,DS3 E-tense So Chic,SMART EV Z,아이오닉,아이오닉5,i3 120Ah Lux,스파크,BOLT EV LT,Model 3,Model Y,니로EV,코나"
  },
  {
    "Place": "성암산신동아파밀리에",
    "Address": "경상북도 경산시 옥곡동 장산로4길 10",
    "Lon": 128.7266777,
    "Lat": 35.81437311,
    "Fast": 1,
    "Slow": 1,
    "Cars": "ZOE ZEN,레이,쏘울,Peugeot e-208 Allure,Peugeot e-2008 SUV Allure,DS3 E-tense So Chic,SMART EV Z,아이오닉,아이오닉5,i3 120Ah Lux,스파크,BOLT EV LT,Model 3,Model Y,니로EV,코나"
  },
  {
    "Place": "신대부적1차부영사랑으로",
    "Address": "경상북도 경산시 압량면 압독2로 45",
    "Lon": 128.7682706,
    "Lat": 35.84191319,
    "Fast": 1,
    "Slow": 2,
    "Cars": "ZOE ZEN,레이,쏘울,Peugeot e-208 Allure,Peugeot e-2008 SUV Allure,DS3 E-tense So Chic,SMART EV Z,아이오닉,아이오닉5,i3 120Ah Lux,스파크,BOLT EV LT,Model 3,Model Y,니로EV,코나"
  },
  {
    "Place": "신대부적2차부영아파트",
    "Address": "경상북도 경산시 압량면 압독2로 59",
    "Lon": 128.7693231,
    "Lat": 35.84125855,
    "Fast": 1,
    "Slow": 2,
    "Cars": "ZOE ZEN,레이,쏘울,Peugeot e-208 Allure,Peugeot e-2008 SUV Allure,DS3 E-tense So Chic,SMART EV Z,아이오닉,아이오닉5,i3 120Ah Lux,스파크,BOLT EV LT,Model 3,Model Y,니로EV,코나"
  },
  {
    "Place": "옥산협화타운",
    "Address": "경상북도 경산시 옥산동 성암로 8",
    "Lon": 128.7188357,
    "Lat": 35.8205384,
    "Fast": 1,
    "Slow": 2,
    "Cars": "ZOE ZEN,레이,쏘울,Peugeot e-208 Allure,Peugeot e-2008 SUV Allure,DS3 E-tense So Chic,SMART EV Z,아이오닉,아이오닉5,i3 120Ah Lux,스파크,BOLT EV LT,Model 3,Model Y,니로EV,코나"
  },
  {
    "Place": "우방힐타운",
    "Address": "경상북도 경산시 진량읍 공단로 527",
    "Lon": 128.8171134,
    "Lat": 35.87870579,
    "Fast": 1,
    "Slow": 3,
    "Cars": "ZOE ZEN,레이,쏘울,Peugeot e-208 Allure,Peugeot e-2008 SUV Allure,DS3 E-tense So Chic,SMART EV Z,아이오닉,아이오닉5,i3 120Ah Lux,스파크,BOLT EV LT,Model 3,Model Y,니로EV,코나"
  },
  {
    "Place": "이마트 경산점",
    "Address": "경상북도 경산시 중산동 623",
    "Lon": 128.7201754,
    "Lat": 35.83470936,
    "Fast": 1,
    "Slow": 0,
    "Cars": "ZOE ZEN,레이,쏘울,Peugeot e-208 Allure,Peugeot e-2008 SUV Allure,DS3 E-tense So Chic,SMART EV Z,아이오닉,아이오닉5,i3 120Ah Lux,스파크,BOLT EV LT,Model 3,Model Y,니로EV,코나"
  },
  {
    "Place": "중방e편한세상2단지",
    "Address": "경상북도 경산시 중방동 894",
    "Lon": 128.738493,
    "Lat": 35.83134028,
    "Fast": 1,
    "Slow": 1,
    "Cars": "ZOE ZEN,레이,쏘울,Peugeot e-208 Allure,Peugeot e-2008 SUV Allure,DS3 E-tense So Chic,SMART EV Z,아이오닉,아이오닉5,i3 120Ah Lux,스파크,BOLT EV LT,Model 3,Model Y,니로EV,코나"
  },
  {
    "Place": "진량초원장미아파트",
    "Address": "경상북도 경산시 진량읍 초원길 53-4",
    "Lon": 128.8385498,
    "Lat": 35.89269383,
    "Fast": 1,
    "Slow": 2,
    "Cars": "ZOE ZEN,레이,쏘울,Peugeot e-208 Allure,Peugeot e-2008 SUV Allure,DS3 E-tense So Chic,SMART EV Z,아이오닉,아이오닉5,i3 120Ah Lux,스파크,BOLT EV LT,Model 3,Model Y,니로EV,코나"
  },
  {
    "Place": "하양2차롯데낙천대 아파트",
    "Address": "경상북도 경산시 하양읍 대학로295길 26",
    "Lon": 128.8213074,
    "Lat": 35.90985616,
    "Fast": 1,
    "Slow": 0,
    "Cars": "ZOE ZEN,레이,쏘울,Peugeot e-208 Allure,Peugeot e-2008 SUV Allure,DS3 E-tense So Chic,SMART EV Z,아이오닉,아이오닉5,i3 120Ah Lux,스파크,BOLT EV LT,Model 3,Model Y,니로EV,코나"
  },
  {
    "Place": "하양금락우방타운",
    "Address": "경상북도 경산시 하양읍 대학로298길 19-3",
    "Lon": 128.8239473,
    "Lat": 35.91232883,
    "Fast": 1,
    "Slow": 2,
    "Cars": "ZOE ZEN,레이,쏘울,Peugeot e-208 Allure,Peugeot e-2008 SUV Allure,DS3 E-tense So Chic,SMART EV Z,아이오닉,아이오닉5,i3 120Ah Lux,스파크,BOLT EV LT,Model 3,Model Y,니로EV,코나"
  },
  {
    "Place": "한국전력 경산지사",
    "Address": "경상북도 경산시 원효로 8",
    "Lon": 128.7387728,
    "Lat": 35.82344266,
    "Fast": 2,
    "Slow": 1,
    "Cars": "ZOE ZEN,레이,쏘울,Peugeot e-208 Allure,Peugeot e-2008 SUV Allure,DS3 E-tense So Chic,SMART EV Z,아이오닉,아이오닉5,i3 120Ah Lux,스파크,BOLT EV LT,Model 3,Model Y,니로EV,코나"
  },
  {
    "Place": "현대타운",
    "Address": "경상북도 경산시 정평동 대학로9길 8",
    "Lon": 128.7288477,
    "Lat": 35.83585753,
    "Fast": 1,
    "Slow": 1,
    "Cars": "ZOE ZEN,레이,쏘울,Peugeot e-208 Allure,Peugeot e-2008 SUV Allure,DS3 E-tense So Chic,SMART EV Z,아이오닉,아이오닉5,i3 120Ah Lux,스파크,BOLT EV LT,Model 3,Model Y,니로EV,코나"
  },
  {
    "Place": "홈플러스 경산점",
    "Address": "경상북도 경산시 경안로 288",
    "Lon": 128.7356443,
    "Lat": 35.83282506,
    "Fast": 1,
    "Slow": 0,
    "Cars": "ZOE ZEN,레이,쏘울,Peugeot e-208 Allure,Peugeot e-2008 SUV Allure,DS3 E-tense So Chic,SMART EV Z,아이오닉,아이오닉5,i3 120Ah Lux,스파크,BOLT EV LT,Model 3,Model Y,니로EV,코나"
  },
  {
    "Place": "e편한세상황성",
    "Address": "경상북도 경주시 황성동 1170",
    "Lon": 129.2116468,
    "Lat": 35.87023541,
    "Fast": 1,
    "Slow": 2,
    "Cars": "ZOE ZEN,레이,쏘울,Peugeot e-208 Allure,Peugeot e-2008 SUV Allure,DS3 E-tense So Chic,SMART EV Z,아이오닉,아이오닉5,i3 120Ah Lux,스파크,BOLT EV LT,Model 3,Model Y,니로EV,코나"
  },
  {
    "Place": "경주 예술의 전당",
    "Address": "경상북도 경주시 황성동 1050-6",
    "Lon": 129.2052829,
    "Lat": 35.86234099,
    "Fast": 2,
    "Slow": 0,
    "Cars": "ZOE ZEN,레이,쏘울,Peugeot e-208 Allure,Peugeot e-2008 SUV Allure,DS3 E-tense So Chic,SMART EV Z,아이오닉,아이오닉5,i3 120Ah Lux,스파크,BOLT EV LT,Model 3,Model Y,니로EV,코나"
  },
  {
    "Place": "경주IC휴게소",
    "Address": "경상북도 경주시 율동 64-1",
    "Lon": 129.194533,
    "Lat": 35.81269254,
    "Fast": 2,
    "Slow": 0,
    "Cars": "ZOE ZEN,레이,쏘울,Peugeot e-208 Allure,Peugeot e-2008 SUV Allure,DS3 E-tense So Chic,SMART EV Z,아이오닉,아이오닉5,i3 120Ah Lux,스파크,BOLT EV LT,Model 3,Model Y,니로EV,코나"
  },
  {
    "Place": "경주지사",
    "Address": "경상북도 경주시 동천동 804",
    "Lon": 129.2249508,
    "Lat": 35.85465109,
    "Fast": 2,
    "Slow": 4,
    "Cars": "ZOE ZEN,레이,쏘울,Peugeot e-208 Allure,Peugeot e-2008 SUV Allure,DS3 E-tense So Chic,SMART EV Z,아이오닉,아이오닉5,i3 120Ah Lux,스파크,BOLT EV LT,Model 3,Model Y,니로EV,코나"
  },
  {
    "Place": "경주코아루그랑블아파트",
    "Address": "경상북도 경주시 도지동 329-2",
    "Lon": 129.2667001,
    "Lat": 35.80246874,
    "Fast": 1,
    "Slow": 0,
    "Cars": "ZOE ZEN,레이,쏘울,Peugeot e-208 Allure,Peugeot e-2008 SUV Allure,DS3 E-tense So Chic,SMART EV Z,아이오닉,아이오닉5,i3 120Ah Lux,스파크,BOLT EV LT,Model 3,Model Y,니로EV,코나"
  },
  {
    "Place": "경주푸르지오 아파트",
    "Address": "경상북도 경주시 동천동 989",
    "Lon": 129.2205518,
    "Lat": 35.85765714,
    "Fast": 1,
    "Slow": 2,
    "Cars": "ZOE ZEN,레이,쏘울,Peugeot e-208 Allure,Peugeot e-2008 SUV Allure,DS3 E-tense So Chic,SMART EV Z,아이오닉,아이오닉5,i3 120Ah Lux,스파크,BOLT EV LT,Model 3,Model Y,니로EV,코나"
  },
  {
    "Place": "경주화백컨벤션센터",
    "Address": "경상북도 경주시 신평동 182",
    "Lon": 129.2880851,
    "Lat": 35.83868797,
    "Fast": 3,
    "Slow": 0,
    "Cars": "ZOE ZEN,레이,쏘울,Peugeot e-208 Allure,Peugeot e-2008 SUV Allure,DS3 E-tense So Chic,SMART EV Z,아이오닉,아이오닉5,i3 120Ah Lux,스파크,BOLT EV LT,Model 3,Model Y,니로EV,코나"
  },
  {
    "Place": "고려제강 기숙사",
    "Address": "경상북도 경주시 건천읍 조전리 14-1",
    "Lon": 129.1074398,
    "Lat": 35.84626909,
    "Fast": 0,
    "Slow": 1,
    "Cars": "레이,쏘울,Peugeot e-208 Allure,Peugeot e-2008 SUV Allure,DS3 E-tense So Chic,SMART EV Z,아이오닉,아이오닉5,i3 120Ah Lux,스파크,BOLT EV LT,니로EV,코나"
  },
  {
    "Place": "불국사주차장",
    "Address": "경상북도 경주시 진현동 50-2",
    "Lon": 129.328763,
    "Lat": 35.78660485,
    "Fast": 1,
    "Slow": 0,
    "Cars": "ZOE ZEN,레이,쏘울,Peugeot e-208 Allure,Peugeot e-2008 SUV Allure,DS3 E-tense So Chic,SMART EV Z,아이오닉,아이오닉5,i3 120Ah Lux,스파크,BOLT EV LT,Model 3,Model Y,니로EV,코나"
  },
  {
    "Place": "서라벌광장휴게소",
    "Address": "경상북도 경주시 율동 593",
    "Lon": 129.1970943,
    "Lat": 35.81238973,
    "Fast": 3,
    "Slow": 0,
    "Cars": "ZOE ZEN,레이,쏘울,Peugeot e-208 Allure,Peugeot e-2008 SUV Allure,DS3 E-tense So Chic,SMART EV Z,아이오닉,아이오닉5,i3 120Ah Lux,스파크,BOLT EV LT,Model 3,Model Y,니로EV,코나"
  },
  {
    "Place": "세잔베르체",
    "Address": "경상북도 경주시 황성동 886-1",
    "Lon": 129.2102424,
    "Lat": 35.86914585,
    "Fast": 0,
    "Slow": 1,
    "Cars": "ZOE ZEN,레이,쏘울,Peugeot e-208 Allure,Peugeot e-2008 SUV Allure,DS3 E-tense So Chic,SMART EV Z,아이오닉,아이오닉5,i3 120Ah Lux,스파크,BOLT EV LT,Model 3,Model Y,니로EV,코나"
  },
  {
    "Place": "용강현진에버빌",
    "Address": "경상북도 경주시 용강동 1380",
    "Lon": 129.2245188,
    "Lat": 35.88558898,
    "Fast": 1,
    "Slow": 2,
    "Cars": "ZOE ZEN,레이,쏘울,Peugeot e-208 Allure,Peugeot e-2008 SUV Allure,DS3 E-tense So Chic,SMART EV Z,아이오닉,아이오닉5,i3 120Ah Lux,스파크,BOLT EV LT,Model 3,Model Y,니로EV,코나"
  },
  {
    "Place": "천북농협 로컬푸드",
    "Address": "경상북도 경주시 천북면 모아리 583-8",
    "Lon": 129.2452572,
    "Lat": 35.9198543,
    "Fast": 2,
    "Slow": 0,
    "Cars": "ZOE ZEN,레이,쏘울,Peugeot e-208 Allure,Peugeot e-2008 SUV Allure,DS3 E-tense So Chic,SMART EV Z,아이오닉,아이오닉5,i3 120Ah Lux,스파크,BOLT EV LT,Model 3,Model Y,니로EV,코나"
  },
  {
    "Place": "한수원 푸르뫼사택",
    "Address": "경상북도 경주시 양북면 어일리 1350",
    "Lon": 129.4489806,
    "Lat": 35.78286967,
    "Fast": 1,
    "Slow": 3,
    "Cars": "ZOE ZEN,레이,쏘울,Peugeot e-208 Allure,Peugeot e-2008 SUV Allure,DS3 E-tense So Chic,SMART EV Z,아이오닉,아이오닉5,i3 120Ah Lux,스파크,BOLT EV LT,Model 3,Model Y,니로EV,코나"
  },
  {
    "Place": "한수원아파트",
    "Address": "경상북도 경주시 양남면 읍천리 산 13-2",
    "Lon": 129.4692073,
    "Lat": 35.69774792,
    "Fast": 1,
    "Slow": 3,
    "Cars": "ZOE ZEN,레이,쏘울,Peugeot e-208 Allure,Peugeot e-2008 SUV Allure,DS3 E-tense So Chic,SMART EV Z,아이오닉,아이오닉5,i3 120Ah Lux,스파크,BOLT EV LT,Model 3,Model Y,니로EV,코나"
  },
  {
    "Place": "현진에버빌1차아파트",
    "Address": "경상북도 경주시 황성동 1163",
    "Lon": 129.221816,
    "Lat": 35.88446326,
    "Fast": 1,
    "Slow": 3,
    "Cars": "ZOE ZEN,레이,쏘울,Peugeot e-208 Allure,Peugeot e-2008 SUV Allure,DS3 E-tense So Chic,SMART EV Z,아이오닉,아이오닉5,i3 120Ah Lux,스파크,BOLT EV LT,Model 3,Model Y,니로EV,코나"
  },
  {
    "Place": "홈플러스 경주점",
    "Address": "경상북도 경주시 용강동 800-11",
    "Lon": 129.2245944,
    "Lat": 35.87321096,
    "Fast": 1,
    "Slow": 0,
    "Cars": "ZOE ZEN,레이,쏘울,Peugeot e-208 Allure,Peugeot e-2008 SUV Allure,DS3 E-tense So Chic,SMART EV Z,아이오닉,아이오닉5,i3 120Ah Lux,스파크,BOLT EV LT,Model 3,Model Y,니로EV,코나"
  },
  {
    "Place": "엄사삼진 아파트",
    "Address": "충청남도 계룡시 엄사면 번영3길 73-12",
    "Lon": 127.2393235,
    "Lat": 36.28177365,
    "Fast": 1,
    "Slow": 0,
    "Cars": "ZOE ZEN,레이,쏘울,Peugeot e-208 Allure,Peugeot e-2008 SUV Allure,DS3 E-tense So Chic,SMART EV Z,아이오닉,아이오닉5,i3 120Ah Lux,스파크,BOLT EV LT,Model 3,Model Y,니로EV,코나"
  },
  {
    "Place": "홈플러스 계룡점",
    "Address": "충청남도 계룡시 계룡대로 304",
    "Lon": 127.2571415,
    "Lat": 36.27400148,
    "Fast": 1,
    "Slow": 0,
    "Cars": "ZOE ZEN,레이,쏘울,Peugeot e-208 Allure,Peugeot e-2008 SUV Allure,DS3 E-tense So Chic,SMART EV Z,아이오닉,아이오닉5,i3 120Ah Lux,스파크,BOLT EV LT,Model 3,Model Y,니로EV,코나"
  },
  {
    "Place": "계양구청",
    "Address": "인천광역시 계양구 계산동 1079-1",
    "Lon": 126.7377468,
    "Lat": 37.53711099,
    "Fast": 4,
    "Slow": 0,
    "Cars": "ZOE ZEN,레이,쏘울,Peugeot e-208 Allure,Peugeot e-2008 SUV Allure,DS3 E-tense So Chic,SMART EV Z,아이오닉,아이오닉5,i3 120Ah Lux,스파크,BOLT EV LT,Model 3,Model Y,니로EV,코나"
  },
  {
    "Place": "계양산 공영주차장",
    "Address": "인천 계양구 계산동 905",
    "Lon": 126.7265674,
    "Lat": 37.54728375,
    "Fast": 1,
    "Slow": 0,
    "Cars": "ZOE ZEN,Model 3,Model Y"
  },
  {
    "Place": "작전동보2차 아파트",
    "Address": "인천광역시 계양구 작전동 286-1",
    "Lon": 126.7319991,
    "Lat": 37.52629811,
    "Fast": 1,
    "Slow": 1,
    "Cars": "ZOE ZEN,레이,쏘울,Peugeot e-208 Allure,Peugeot e-2008 SUV Allure,DS3 E-tense So Chic,SMART EV Z,아이오닉,아이오닉5,i3 120Ah Lux,스파크,BOLT EV LT,Model 3,Model Y,니로EV,코나"
  },
  {
    "Place": "초정마을동아 아파트",
    "Address": "인천광역시 계양구 용종동 213-3",
    "Lon": 126.7403535,
    "Lat": 37.53861267,
    "Fast": 1,
    "Slow": 1,
    "Cars": "ZOE ZEN,레이,쏘울,Peugeot e-208 Allure,Peugeot e-2008 SUV Allure,DS3 E-tense So Chic,SMART EV Z,아이오닉,아이오닉5,i3 120Ah Lux,스파크,BOLT EV LT,Model 3,Model Y,니로EV,코나"
  },
  {
    "Place": "하나로마트 인천점",
    "Address": "인천광역시 계양구 작전동 256-2",
    "Lon": 126.7283767,
    "Lat": 37.53261909,
    "Fast": 1,
    "Slow": 0,
    "Cars": "ZOE ZEN,레이,쏘울,Peugeot e-208 Allure,Peugeot e-2008 SUV Allure,DS3 E-tense So Chic,SMART EV Z,아이오닉,아이오닉5,i3 120Ah Lux,스파크,BOLT EV LT,Model 3,Model Y,니로EV,코나"
  },
  {
    "Place": "홈플러스 계산점",
    "Address": "인천광역시 계양구 계산동 1061",
    "Lon": 126.7361853,
    "Lat": 37.53949107,
    "Fast": 1,
    "Slow": 0,
    "Cars": "ZOE ZEN,레이,쏘울,Peugeot e-208 Allure,Peugeot e-2008 SUV Allure,DS3 E-tense So Chic,SMART EV Z,아이오닉,아이오닉5,i3 120Ah Lux,스파크,BOLT EV LT,Model 3,Model Y,니로EV,코나"
  },
  {
    "Place": "홈플러스 작전점",
    "Address": "인천광역시 계양구 작전동 448-7",
    "Lon": 126.7212466,
    "Lat": 37.52616308,
    "Fast": 1,
    "Slow": 0,
    "Cars": "ZOE ZEN,레이,쏘울,Peugeot e-208 Allure,Peugeot e-2008 SUV Allure,DS3 E-tense So Chic,SMART EV Z,아이오닉,아이오닉5,i3 120Ah Lux,스파크,BOLT EV LT,Model 3,Model Y,니로EV,코나"
  },
  {
    "Place": "효성동금호어울림아파트",
    "Address": "인천광역시 계양구 효성동 675",
    "Lon": 126.7148004,
    "Lat": 37.52429612,
    "Fast": 0,
    "Slow": 2,
    "Cars": "ZOE ZEN,레이,쏘울,Peugeot e-208 Allure,Peugeot e-2008 SUV Allure,DS3 E-tense So Chic,SMART EV Z,아이오닉,아이오닉5,i3 120Ah Lux,스파크,BOLT EV LT,Model 3,Model Y,니로EV,코나"
  },
  {
    "Place": "개진면 행정복지센터 주차장",
    "Address": "경상북도 고령군 개진면 개포리 240-1",
    "Lon": 128.3505977,
    "Lat": 35.7091099,
    "Fast": 1,
    "Slow": 0,
    "Cars": "레이,쏘울,Peugeot e-208 Allure,Peugeot e-2008 SUV Allure,DS3 E-tense So Chic,SMART EV Z,아이오닉,아이오닉5,i3 120Ah Lux,스파크,BOLT EV LT,니로EV,코나"
  },
  {
    "Place": "금류강남타운1차",
    "Address": "경상북도 고령군 다산면 상곡1길 15",
    "Lon": 128.4474683,
    "Lat": 35.82284759,
    "Fast": 1,
    "Slow": 2,
    "Cars": "ZOE ZEN,레이,쏘울,Peugeot e-208 Allure,Peugeot e-2008 SUV Allure,DS3 E-tense So Chic,SMART EV Z,아이오닉,아이오닉5,i3 120Ah Lux,스파크,BOLT EV LT,Model 3,Model Y,니로EV,코나"
  },
  {
    "Place": "다산면사무소 주차장 부지(신규)",
    "Address": "경상북도 고령군 다산면 상곡리 175-1",
    "Lon": 128.4486589,
    "Lat": 35.82461345,
    "Fast": 1,
    "Slow": 0,
    "Cars": "레이,쏘울,Peugeot e-208 Allure,Peugeot e-2008 SUV Allure,DS3 E-tense So Chic,SMART EV Z,아이오닉,아이오닉5,i3 120Ah Lux,스파크,BOLT EV LT,니로EV,코나"
  },
  {
    "Place": "덕곡면사무소",
    "Address": "경상북도 고령군 덕곡면 덕운로 570",
    "Lon": 128.2332181,
    "Lat": 35.7793456,
    "Fast": 1,
    "Slow": 0,
    "Cars": "레이,쏘울,Peugeot e-208 Allure,Peugeot e-2008 SUV Allure,DS3 E-tense So Chic,SMART EV Z,아이오닉,아이오닉5,i3 120Ah Lux,스파크,BOLT EV LT,니로EV,코나"
  },
  {
    "Place": "거류체육공원 주차장",
    "Address": "경상남도 고성군 거류면 신용리 888",
    "Lon": 128.4066819,
    "Lat": 34.98318015,
    "Fast": 1,
    "Slow": 0,
    "Cars": "ZOE ZEN,레이,쏘울,Peugeot e-208 Allure,Peugeot e-2008 SUV Allure,DS3 E-tense So Chic,SMART EV Z,아이오닉,아이오닉5,i3 120Ah Lux,스파크,BOLT EV LT,Model 3,Model Y,니로EV,코나"
  },
  {
    "Place": "고성석미모닝파크",
    "Address": "강원도 고성군 간성읍 상리 443-2",
    "Lon": 128.4633811,
    "Lat": 38.37795063,
    "Fast": 0,
    "Slow": 1,
    "Cars": "ZOE ZEN,레이,쏘울,Peugeot e-208 Allure,Peugeot e-2008 SUV Allure,DS3 E-tense So Chic,SMART EV Z,아이오닉,아이오닉5,i3 120Ah Lux,스파크,BOLT EV LT,Model 3,Model Y,니로EV,코나"
  },
  {
    "Place": "고성지사",
    "Address": "강원도 고성군 간성읍 신안리 319-4",
    "Lon": 128.4731552,
    "Lat": 38.38024934,
    "Fast": 0,
    "Slow": 1,
    "Cars": "레이,쏘울,Peugeot e-208 Allure,Peugeot e-2008 SUV Allure,DS3 E-tense So Chic,SMART EV Z,아이오닉,아이오닉5,i3 120Ah Lux,스파크,BOLT EV LT,니로EV,코나"
  },
  {
    "Place": "국민체육센터",
    "Address": "강원도 고성군 거진읍 송포리 634-1",
    "Lon": 128.4527756,
    "Lat": 38.43551694,
    "Fast": 1,
    "Slow": 0,
    "Cars": "ZOE ZEN,레이,쏘울,Peugeot e-208 Allure,Peugeot e-2008 SUV Allure,DS3 E-tense So Chic,SMART EV Z,아이오닉,아이오닉5,i3 120Ah Lux,스파크,BOLT EV LT,Model 3,Model Y,니로EV,코나"
  },
  {
    "Place": "남산공원 오토캠핑장",
    "Address": "경상남도 고성읍 신월리 657-7",
    "Lon": 128.3292501,
    "Lat": 34.95569571,
    "Fast": 1,
    "Slow": 0,
    "Cars": "ZOE ZEN,레이,쏘울,Peugeot e-208 Allure,Peugeot e-2008 SUV Allure,DS3 E-tense So Chic,SMART EV Z,아이오닉,아이오닉5,i3 120Ah Lux,스파크,BOLT EV LT,Model 3,Model Y,니로EV,코나"
  },
  {
    "Place": "마암면사무소 주차장",
    "Address": "경상남도 고성군 마암면 도전리 670-8",
    "Lon": 128.3367461,
    "Lat": 35.055188,
    "Fast": 1,
    "Slow": 0,
    "Cars": "ZOE ZEN,레이,쏘울,Peugeot e-208 Allure,Peugeot e-2008 SUV Allure,DS3 E-tense So Chic,SMART EV Z,아이오닉,아이오닉5,i3 120Ah Lux,스파크,BOLT EV LT,Model 3,Model Y,니로EV,코나"
  },
  {
    "Place": "상하수도사업본부",
    "Address": "경상남도 고성군 고성읍 송학리 1-1",
    "Lon": 128.3446091,
    "Lat": 34.98466119,
    "Fast": 1,
    "Slow": 0,
    "Cars": "ZOE ZEN,Model 3,Model Y"
  },
  {
    "Place": "죽왕면사무소",
    "Address": "강원도 고성군 죽왕면 오호리 170-3",
    "Lon": 128.5256755,
    "Lat": 38.32917077,
    "Fast": 1,
    "Slow": 0,
    "Cars": "ZOE ZEN,레이,쏘울,Peugeot e-208 Allure,Peugeot e-2008 SUV Allure,DS3 E-tense So Chic,SMART EV Z,아이오닉,아이오닉5,i3 120Ah Lux,스파크,BOLT EV LT,Model 3,Model Y,니로EV,코나"
  },
  {
    "Place": "고양동 제1 공영주차장",
    "Address": "경기도 고양시 덕양구 고양동 195-2",
    "Lon": 126.9035907,
    "Lat": 37.70378259,
    "Fast": 1,
    "Slow": 0,
    "Cars": "ZOE ZEN,레이,쏘울,Peugeot e-208 Allure,Peugeot e-2008 SUV Allure,DS3 E-tense So Chic,SMART EV Z,아이오닉,아이오닉5,i3 120Ah Lux,스파크,BOLT EV LT,Model 3,Model Y,니로EV,코나"
  },
  {
    "Place": "능곡2차 현대홈타운아파트",
    "Address": "경기도 고양시 덕양구 토당동 능곡로13번길 16",
    "Lon": 126.8207119,
    "Lat": 37.62284147,
    "Fast": 1,
    "Slow": 0,
    "Cars": "ZOE ZEN,레이,쏘울,Peugeot e-208 Allure,Peugeot e-2008 SUV Allure,DS3 E-tense So Chic,SMART EV Z,아이오닉,아이오닉5,i3 120Ah Lux,스파크,BOLT EV LT,Model 3,Model Y,니로EV,코나"
  },
  {
    "Place": "능곡주민센터",
    "Address": "경기도 고양시 덕양구 토당로 83",
    "Lon": 126.8179412,
    "Lat": 37.6224627,
    "Fast": 1,
    "Slow": 0,
    "Cars": "ZOE ZEN,레이,쏘울,Peugeot e-208 Allure,Peugeot e-2008 SUV Allure,DS3 E-tense So Chic,SMART EV Z,아이오닉,아이오닉5,i3 120Ah Lux,스파크,BOLT EV LT,Model 3,Model Y,니로EV,코나"
  },
  {
    "Place": "샘터마을1단지",
    "Address": "경기도 고양시 덕양구 행신동 화신로 76",
    "Lon": 126.8403468,
    "Lat": 37.61871543,
    "Fast": 1,
    "Slow": 3,
    "Cars": "ZOE ZEN,레이,쏘울,Peugeot e-208 Allure,Peugeot e-2008 SUV Allure,DS3 E-tense So Chic,SMART EV Z,아이오닉,아이오닉5,i3 120Ah Lux,스파크,BOLT EV LT,Model 3,Model Y,니로EV,코나"
  },
  {
    "Place": "서정마을6단지 아파트",
    "Address": "경기도 고양시 덕양구 행신동 서정로 19",
    "Lon": 126.8514071,
    "Lat": 37.61779772,
    "Fast": 0,
    "Slow": 1,
    "Cars": "ZOE ZEN,레이,쏘울,Peugeot e-208 Allure,Peugeot e-2008 SUV Allure,DS3 E-tense So Chic,SMART EV Z,아이오닉,아이오닉5,i3 120Ah Lux,스파크,BOLT EV LT,Model 3,Model Y,니로EV,코나"
  },
  {
    "Place": "서정마을휴먼시아7단지아파트",
    "Address": "경기도 고양시 덕양구 행신동 소원로181번길 20",
    "Lon": 126.8447312,
    "Lat": 37.61437525,
    "Fast": 1,
    "Slow": 2,
    "Cars": "ZOE ZEN,레이,쏘울,Peugeot e-208 Allure,Peugeot e-2008 SUV Allure,DS3 E-tense So Chic,SMART EV Z,아이오닉,아이오닉5,i3 120Ah Lux,스파크,BOLT EV LT,Model 3,Model Y,니로EV,코나"
  },
  {
    "Place": "여성회관(행신동)",
    "Address": "경기도 고양시 덕양구 용현로 48",
    "Lon": 126.8362047,
    "Lat": 37.61726251,
    "Fast": 1,
    "Slow": 0,
    "Cars": "ZOE ZEN,레이,쏘울,Peugeot e-208 Allure,Peugeot e-2008 SUV Allure,DS3 E-tense So Chic,SMART EV Z,아이오닉,아이오닉5,i3 120Ah Lux,스파크,BOLT EV LT,Model 3,Model Y,니로EV,코나"
  },
  {
    "Place": "옥빛16단지입주자",
    "Address": "경기도 고양시 덕양구 화정동 백양로 15",
    "Lon": 126.8320344,
    "Lat": 37.6274545,
    "Fast": 0,
    "Slow": 2,
    "Cars": "레이,쏘울,Peugeot e-208 Allure,Peugeot e-2008 SUV Allure,DS3 E-tense So Chic,SMART EV Z,아이오닉,아이오닉5,i3 120Ah Lux,스파크,BOLT EV LT,니로EV,코나"
  },
  {
    "Place": "원당 래미안휴레스트 아파트",
    "Address": "경기도 고양시 덕양구 성사동 호국로 863",
    "Lon": 126.8418495,
    "Lat": 37.66089489,
    "Fast": 2,
    "Slow": 2,
    "Cars": "ZOE ZEN,레이,쏘울,Peugeot e-208 Allure,Peugeot e-2008 SUV Allure,DS3 E-tense So Chic,SMART EV Z,아이오닉,아이오닉5,i3 120Ah Lux,스파크,BOLT EV LT,Model 3,Model Y,니로EV,코나"
  },
  {
    "Place": "원당e-편한세상 아파트",
    "Address": "경기도 고양시 덕양구 성사동 호국로 859",
    "Lon": 126.8416358,
    "Lat": 37.66190427,
    "Fast": 1,
    "Slow": 4,
    "Cars": "ZOE ZEN,레이,쏘울,Peugeot e-208 Allure,Peugeot e-2008 SUV Allure,DS3 E-tense So Chic,SMART EV Z,아이오닉,아이오닉5,i3 120Ah Lux,스파크,BOLT EV LT,Model 3,Model Y,니로EV,코나"
  },
  {
    "Place": "원흥도래울6단지",
    "Address": "경기도 고양시 덕양구 도내동 1103",
    "Lon": 126.8686783,
    "Lat": 37.62698854,
    "Fast": 1,
    "Slow": 4,
    "Cars": "ZOE ZEN,레이,쏘울,Peugeot e-208 Allure,Peugeot e-2008 SUV Allure,DS3 E-tense So Chic,SMART EV Z,아이오닉,아이오닉5,i3 120Ah Lux,스파크,BOLT EV LT,Model 3,Model Y,니로EV,코나"
  },
  {
    "Place": "주교벽산 아파트",
    "Address": "경기도 고양시 덕양구 주교동 마상로57번길 58",
    "Lon": 126.832829,
    "Lat": 37.66460942,
    "Fast": 0,
    "Slow": 1,
    "Cars": "ZOE ZEN,레이,쏘울,Peugeot e-208 Allure,Peugeot e-2008 SUV Allure,DS3 E-tense So Chic,SMART EV Z,아이오닉,아이오닉5,i3 120Ah Lux,스파크,BOLT EV LT,Model 3,Model Y,니로EV,코나"
  },
  {
    "Place": "푸른마을10단지",
    "Address": "경기도 고양시 덕양구 고양동 푸른마을로120번길 34",
    "Lon": 126.9038449,
    "Lat": 37.71824,
    "Fast": 1,
    "Slow": 1,
    "Cars": "ZOE ZEN,레이,쏘울,Peugeot e-208 Allure,Peugeot e-2008 SUV Allure,DS3 E-tense So Chic,SMART EV Z,아이오닉,아이오닉5,i3 120Ah Lux,스파크,BOLT EV LT,Model 3,Model Y,니로EV,코나"
  },
  {
    "Place": "푸른마을1단지동익미라벨 아파트",
    "Address": "경기도 고양시 덕양구 고양동 푸른마을로 14",
    "Lon": 126.9036044,
    "Lat": 37.70852254,
    "Fast": 1,
    "Slow": 1,
    "Cars": "ZOE ZEN,레이,쏘울,Peugeot e-208 Allure,Peugeot e-2008 SUV Allure,DS3 E-tense So Chic,SMART EV Z,아이오닉,아이오닉5,i3 120Ah Lux,스파크,BOLT EV LT,Model 3,Model Y,니로EV,코나"
  },
  {
    "Place": "푸른마을6단지 풍림아이원 아파트",
    "Address": "경기도 고양시 덕양구 고양동 푸른마을로 55",
    "Lon": 126.9042803,
    "Lat": 37.71301454,
    "Fast": 1,
    "Slow": 2,
    "Cars": "ZOE ZEN,레이,쏘울,Peugeot e-208 Allure,Peugeot e-2008 SUV Allure,DS3 E-tense So Chic,SMART EV Z,아이오닉,아이오닉5,i3 120Ah Lux,스파크,BOLT EV LT,Model 3,Model Y,니로EV,코나"
  },
  {
    "Place": "화성그린빌 아파트",
    "Address": "경기도 고양시 덕양구 고양동 벽제관로 45-10",
    "Lon": 126.8987841,
    "Lat": 37.70336052,
    "Fast": 0,
    "Slow": 1,
    "Cars": "ZOE ZEN,레이,쏘울,Peugeot e-208 Allure,Peugeot e-2008 SUV Allure,DS3 E-tense So Chic,SMART EV Z,아이오닉,아이오닉5,i3 120Ah Lux,스파크,BOLT EV LT,Model 3,Model Y,니로EV,코나"
  },
  {
    "Place": "화정환승공영주차장",
    "Address": "경기도 고양시 덕양구 화정로 63",
    "Lon": 126.8330363,
    "Lat": 37.63493328,
    "Fast": 1,
    "Slow": 0,
    "Cars": "ZOE ZEN,레이,쏘울,Peugeot e-208 Allure,Peugeot e-2008 SUV Allure,DS3 E-tense So Chic,SMART EV Z,아이오닉,아이오닉5,i3 120Ah Lux,스파크,BOLT EV LT,Model 3,Model Y,니로EV,코나"
  },
  {
    "Place": "고양종합터미널환승주차장",
    "Address": "경기도 고양시 일산동구 중앙로 1036",
    "Lon": 126.7896617,
    "Lat": 37.64317854,
    "Fast": 1,
    "Slow": 0,
    "Cars": "ZOE ZEN,레이,쏘울,Peugeot e-208 Allure,Peugeot e-2008 SUV Allure,DS3 E-tense So Chic,SMART EV Z,아이오닉,아이오닉5,i3 120Ah Lux,스파크,BOLT EV LT,Model 3,Model Y,니로EV,코나"
  },
  {
    "Place": "고양지사",
    "Address": "경기도 고양시 일산동구 장백로 39",
    "Lon": 126.7877965,
    "Lat": 37.64138375,
    "Fast": 2,
    "Slow": 5,
    "Cars": "ZOE ZEN,레이,쏘울,Peugeot e-208 Allure,Peugeot e-2008 SUV Allure,DS3 E-tense So Chic,SMART EV Z,아이오닉,아이오닉5,i3 120Ah Lux,스파크,BOLT EV LT,Model 3,Model Y,니로EV,코나"
  },
  {
    "Place": "백마4단지한양청구아파트",
    "Address": "경기도 고양시 일산동구 마두동 734",
    "Lon": 126.7933286,
    "Lat": 37.6561002,
    "Fast": 1,
    "Slow": 0,
    "Cars": "ZOE ZEN,레이,쏘울,Peugeot e-208 Allure,Peugeot e-2008 SUV Allure,DS3 E-tense So Chic,SMART EV Z,아이오닉,아이오닉5,i3 120Ah Lux,스파크,BOLT EV LT,Model 3,Model Y,니로EV,코나"
  },
  {
    "Place": "백마역중앙하이츠빌1아파트",
    "Address": "경기도 고양시 일산동구 풍동 고일로 171",
    "Lon": 126.8010452,
    "Lat": 37.65901182,
    "Fast": 0,
    "Slow": 2,
    "Cars": "ZOE ZEN,레이,쏘울,Peugeot e-208 Allure,Peugeot e-2008 SUV Allure,DS3 E-tense So Chic,SMART EV Z,아이오닉,아이오닉5,i3 120Ah Lux,스파크,BOLT EV LT,Model 3,Model Y,니로EV,코나"
  },
  {
    "Place": "백송7임광",
    "Address": "경기도 고양시 일산동구 백석동 백석로 175",
    "Lon": 126.7965053,
    "Lat": 37.65217081,
    "Fast": 0,
    "Slow": 2,
    "Cars": "ZOE ZEN,레이,쏘울,Peugeot e-208 Allure,Peugeot e-2008 SUV Allure,DS3 E-tense So Chic,SMART EV Z,아이오닉,아이오닉5,i3 120Ah Lux,스파크,BOLT EV LT,Model 3,Model Y,니로EV,코나"
  },
  {
    "Place": "백송8단지선경코오롱아파트",
    "Address": "경기도 고양시 일산동구 백석동 백석로 151",
    "Lon": 126.7937936,
    "Lat": 37.65249368,
    "Fast": 1,
    "Slow": 2,
    "Cars": "ZOE ZEN,레이,쏘울,Peugeot e-208 Allure,Peugeot e-2008 SUV Allure,DS3 E-tense So Chic,SMART EV Z,아이오닉,아이오닉5,i3 120Ah Lux,스파크,BOLT EV LT,Model 3,Model Y,니로EV,코나"
  },
  {
    "Place": "브라운스톤일산",
    "Address": "경기도 고양시 일산동구 백석동 호수로 336",
    "Lon": 126.7877603,
    "Lat": 37.63761148,
    "Fast": 1,
    "Slow": 3,
    "Cars": "ZOE ZEN,레이,쏘울,Peugeot e-208 Allure,Peugeot e-2008 SUV Allure,DS3 E-tense So Chic,SMART EV Z,아이오닉,아이오닉5,i3 120Ah Lux,스파크,BOLT EV LT,Model 3,Model Y,니로EV,코나"
  },
  {
    "Place": "사리현동문3단지아파트",
    "Address": "경기도 고양시 일산동구 사리현동 공릉천로 66",
    "Lon": 126.8477984,
    "Lat": 37.69892434,
    "Fast": 0,
    "Slow": 1,
    "Cars": "ZOE ZEN,레이,쏘울,Peugeot e-208 Allure,Peugeot e-2008 SUV Allure,DS3 E-tense So Chic,SMART EV Z,아이오닉,아이오닉5,i3 120Ah Lux,스파크,BOLT EV LT,Model 3,Model Y,니로EV,코나"
  },
  {
    "Place": "숲속마을2단지",
    "Address": "경기도 고양시 일산동구 풍동 숲속마을1로 55",
    "Lon": 126.7980405,
    "Lat": 37.66686929,
    "Fast": 0,
    "Slow": 5,
    "Cars": "레이,쏘울,Peugeot e-208 Allure,Peugeot e-2008 SUV Allure,DS3 E-tense So Chic,SMART EV Z,아이오닉,아이오닉5,i3 120Ah Lux,스파크,BOLT EV LT,니로EV,코나"
  },
  {
    "Place": "숲속마을6단지 두산위브",
    "Address": "경기도 고양시 일산동구 풍동 숲속마을로 68",
    "Lon": 126.7955819,
    "Lat": 37.66929155,
    "Fast": 1,
    "Slow": 3,
    "Cars": "ZOE ZEN,레이,쏘울,Peugeot e-208 Allure,Peugeot e-2008 SUV Allure,DS3 E-tense So Chic,SMART EV Z,아이오닉,아이오닉5,i3 120Ah Lux,스파크,BOLT EV LT,Model 3,Model Y,니로EV,코나"
  },
  {
    "Place": "식사동 일산자이2단지 아파트",
    "Address": "경기도 고양시 일산동구 식사동 350",
    "Lon": 126.820191,
    "Lat": 37.67958901,
    "Fast": 2,
    "Slow": 5,
    "Cars": "ZOE ZEN,레이,쏘울,Peugeot e-208 Allure,Peugeot e-2008 SUV Allure,DS3 E-tense So Chic,SMART EV Z,아이오닉,아이오닉5,i3 120Ah Lux,스파크,BOLT EV LT,Model 3,Model Y,니로EV,코나"
  },
  {
    "Place": "양지마을 5단지 건영빌라",
    "Address": "경기도 고양시 일산동구 정발산동 대산로 30",
    "Lon": 126.773322,
    "Lat": 37.67054571,
    "Fast": 0,
    "Slow": 3,
    "Cars": "레이,쏘울,Peugeot e-208 Allure,Peugeot e-2008 SUV Allure,DS3 E-tense So Chic,SMART EV Z,아이오닉,아이오닉5,i3 120Ah Lux,스파크,BOLT EV LT,니로EV,코나"
  },
  {
    "Place": "위시티 일산자이1단지 아파트",
    "Address": "경기도 고양시 일산동구 식사동 위시티4로 84",
    "Lon": 126.8109448,
    "Lat": 37.68437815,
    "Fast": 1,
    "Slow": 4,
    "Cars": "ZOE ZEN,레이,쏘울,Peugeot e-208 Allure,Peugeot e-2008 SUV Allure,DS3 E-tense So Chic,SMART EV Z,아이오닉,아이오닉5,i3 120Ah Lux,스파크,BOLT EV LT,Model 3,Model Y,니로EV,코나"
  },
  {
    "Place": "위시티블루밍5단지",
    "Address": "경기도 고양시 일산동구 식사동 위시티1로 7",
    "Lon": 126.8101452,
    "Lat": 37.67558324,
    "Fast": 1,
    "Slow": 3,
    "Cars": "ZOE ZEN,레이,쏘울,Peugeot e-208 Allure,Peugeot e-2008 SUV Allure,DS3 E-tense So Chic,SMART EV Z,아이오닉,아이오닉5,i3 120Ah Lux,스파크,BOLT EV LT,Model 3,Model Y,니로EV,코나"
  },
  {
    "Place": "정발마을1단지건영빌라",
    "Address": "경기도 고양시 일산동구 마두동 산두로 88",
    "Lon": 126.7870453,
    "Lat": 37.66712665,
    "Fast": 0,
    "Slow": 2,
    "Cars": "ZOE ZEN,레이,쏘울,Peugeot e-208 Allure,Peugeot e-2008 SUV Allure,DS3 E-tense So Chic,SMART EV Z,아이오닉,아이오닉5,i3 120Ah Lux,스파크,BOLT EV LT,Model 3,Model Y,니로EV,코나"
  },
  {
    "Place": "정발마을2단지건영빌라",
    "Address": "경기도 고양시 일산동구 마두동 산두로 72",
    "Lon": 126.7888795,
    "Lat": 37.66480672,
    "Fast": 0,
    "Slow": 2,
    "Cars": "ZOE ZEN,레이,쏘울,Peugeot e-208 Allure,Peugeot e-2008 SUV Allure,DS3 E-tense So Chic,SMART EV Z,아이오닉,아이오닉5,i3 120Ah Lux,스파크,BOLT EV LT,Model 3,Model Y,니로EV,코나"
  },
  {
    "Place": "중산마을1단지두산 아파트",
    "Address": "경기도 고양시 일산동구 중산동 고봉로 424",
    "Lon": 126.7812779,
    "Lat": 37.69698737,
    "Fast": 1,
    "Slow": 3,
    "Cars": "ZOE ZEN,레이,쏘울,Peugeot e-208 Allure,Peugeot e-2008 SUV Allure,DS3 E-tense So Chic,SMART EV Z,아이오닉,아이오닉5,i3 120Ah Lux,스파크,BOLT EV LT,Model 3,Model Y,니로EV,코나"
  },
  {
    "Place": "풍동성원1차아파트",
    "Address": "경기도 고양시 일산동구 풍동 고풍로 44-25",
    "Lon": 126.7961439,
    "Lat": 37.66403802,
    "Fast": 1,
    "Slow": 3,
    "Cars": "ZOE ZEN,레이,쏘울,Peugeot e-208 Allure,Peugeot e-2008 SUV Allure,DS3 E-tense So Chic,SMART EV Z,아이오닉,아이오닉5,i3 120Ah Lux,스파크,BOLT EV LT,Model 3,Model Y,니로EV,코나"
  },
  {
    "Place": "풍동성원2차아파트",
    "Address": "경기도 고양시 일산동구 풍동 고풍로 44-46",
    "Lon": 126.7967513,
    "Lat": 37.66417567,
    "Fast": 0,
    "Slow": 2,
    "Cars": "ZOE ZEN,레이,쏘울,Peugeot e-208 Allure,Peugeot e-2008 SUV Allure,DS3 E-tense So Chic,SMART EV Z,아이오닉,아이오닉5,i3 120Ah Lux,스파크,BOLT EV LT,Model 3,Model Y,니로EV,코나"
  },
  {
    "Place": "풍동쌍용 아파트",
    "Address": "경기도 고양시 일산동구 풍동 애니골길 7-27",
    "Lon": 126.7892205,
    "Lat": 37.67021563,
    "Fast": 0,
    "Slow": 2,
    "Cars": "ZOE ZEN,레이,쏘울,Peugeot e-208 Allure,Peugeot e-2008 SUV Allure,DS3 E-tense So Chic,SMART EV Z,아이오닉,아이오닉5,i3 120Ah Lux,스파크,BOLT EV LT,Model 3,Model Y,니로EV,코나"
  },
  {
    "Place": "홈플러스 고양터미널점",
    "Address": "경기도 고양시 일산동구 중앙로 1036",
    "Lon": 126.7896617,
    "Lat": 37.64317854,
    "Fast": 1,
    "Slow": 0,
    "Cars": "ZOE ZEN,레이,쏘울,Peugeot e-208 Allure,Peugeot e-2008 SUV Allure,DS3 E-tense So Chic,SMART EV Z,아이오닉,아이오닉5,i3 120Ah Lux,스파크,BOLT EV LT,Model 3,Model Y,니로EV,코나"
  },
  {
    "Place": "가좌마을1단지 양우아파트",
    "Address": "경기도 고양시 일산서구 가좌동 가좌4로 29",
    "Lon": 126.7180848,
    "Lat": 37.68529628,
    "Fast": 1,
    "Slow": 2,
    "Cars": "ZOE ZEN,레이,쏘울,Peugeot e-208 Allure,Peugeot e-2008 SUV Allure,DS3 E-tense So Chic,SMART EV Z,아이오닉,아이오닉5,i3 120Ah Lux,스파크,BOLT EV LT,Model 3,Model Y,니로EV,코나"
  },
  {
    "Place": "가좌마을7단지꿈에그린한화 아파트",
    "Address": "경기도 고양시 일산서구 가좌동 송포로 207",
    "Lon": 126.7225172,
    "Lat": 37.68277936,
    "Fast": 1,
    "Slow": 2,
    "Cars": "ZOE ZEN,레이,쏘울,Peugeot e-208 Allure,Peugeot e-2008 SUV Allure,DS3 E-tense So Chic,SMART EV Z,아이오닉,아이오닉5,i3 120Ah Lux,스파크,BOLT EV LT,Model 3,Model Y,니로EV,코나"
  },
  {
    "Place": "가좌벽산블루밍5단지 아파트",
    "Address": "경기도 고양시 일산서구 가좌동 1090",
    "Lon": 126.7172018,
    "Lat": 37.68491454,
    "Fast": 1,
    "Slow": 3,
    "Cars": "ZOE ZEN,레이,쏘울,Peugeot e-208 Allure,Peugeot e-2008 SUV Allure,DS3 E-tense So Chic,SMART EV Z,아이오닉,아이오닉5,i3 120Ah Lux,스파크,BOLT EV LT,Model 3,Model Y,니로EV,코나"
  },
  {
    "Place": "강선동신 아파트",
    "Address": "경기도 고양시 일산서구 주엽동 46번지",
    "Lon": 126.769838,
    "Lat": 37.67078553,
    "Fast": 1,
    "Slow": 1,
    "Cars": "ZOE ZEN,레이,쏘울,Peugeot e-208 Allure,Peugeot e-2008 SUV Allure,DS3 E-tense So Chic,SMART EV Z,아이오닉,아이오닉5,i3 120Ah Lux,스파크,BOLT EV LT,Model 3,Model Y,니로EV,코나"
  },
  {
    "Place": "동양라파크 아파트",
    "Address": "경기도 고양시 일산서구 덕이동 탄중로 101",
    "Lon": 126.7564029,
    "Lat": 37.69261046,
    "Fast": 0,
    "Slow": 2,
    "Cars": "ZOE ZEN,레이,쏘울,Peugeot e-208 Allure,Peugeot e-2008 SUV Allure,DS3 E-tense So Chic,SMART EV Z,아이오닉,아이오닉5,i3 120Ah Lux,스파크,BOLT EV LT,Model 3,Model Y,니로EV,코나"
  },
  {
    "Place": "산들5단지동문 아파트",
    "Address": "경기도 고양시 일산서구 일산동 일중로 30",
    "Lon": 126.7750247,
    "Lat": 37.68172806,
    "Fast": 1,
    "Slow": 3,
    "Cars": "ZOE ZEN,레이,쏘울,Peugeot e-208 Allure,Peugeot e-2008 SUV Allure,DS3 E-tense So Chic,SMART EV Z,아이오닉,아이오닉5,i3 120Ah Lux,스파크,BOLT EV LT,Model 3,Model Y,니로EV,코나"
  },
  {
    "Place": "성저마을4단지삼익 아파트",
    "Address": "경기도 고양시 일산서구 대화동 대산로 263",
    "Lon": 126.7483647,
    "Lat": 37.67982161,
    "Fast": 1,
    "Slow": 2,
    "Cars": "ZOE ZEN,레이,쏘울,Peugeot e-208 Allure,Peugeot e-2008 SUV Allure,DS3 E-tense So Chic,SMART EV Z,아이오닉,아이오닉5,i3 120Ah Lux,스파크,BOLT EV LT,Model 3,Model Y,니로EV,코나"
  },
  {
    "Place": "일산 두산위브더제니스",
    "Address": "경기도 고양시 일산서구 탄현동 일현로 97-11",
    "Lon": 126.7628277,
    "Lat": 37.69346198,
    "Fast": 2,
    "Slow": 6,
    "Cars": "ZOE ZEN,레이,쏘울,Peugeot e-208 Allure,Peugeot e-2008 SUV Allure,DS3 E-tense So Chic,SMART EV Z,아이오닉,아이오닉5,i3 120Ah Lux,스파크,BOLT EV LT,Model 3,Model Y,니로EV,코나"
  },
  {
    "Place": "일산3차현대홈타운",
    "Address": "경기도 고양시 일산서구 일산동 일청로 45",
    "Lon": 126.7707254,
    "Lat": 37.68785081,
    "Fast": 1,
    "Slow": 2,
    "Cars": "ZOE ZEN,레이,쏘울,Peugeot e-208 Allure,Peugeot e-2008 SUV Allure,DS3 E-tense So Chic,SMART EV Z,아이오닉,아이오닉5,i3 120Ah Lux,스파크,BOLT EV LT,Model 3,Model Y,니로EV,코나"
  },
  {
    "Place": "일산아이파크1단지아파트",
    "Address": "경기도 고양시 일산서구 덕이동 1524",
    "Lon": 126.7574909,
    "Lat": 37.69347992,
    "Fast": 0,
    "Slow": 1,
    "Cars": "ZOE ZEN,레이,쏘울,Peugeot e-208 Allure,Peugeot e-2008 SUV Allure,DS3 E-tense So Chic,SMART EV Z,아이오닉,아이오닉5,i3 120Ah Lux,스파크,BOLT EV LT,Model 3,Model Y,니로EV,코나"
  },
  {
    "Place": "일산에듀포레푸르지오아파트",
    "Address": "경기도 고양시 일산서구 탄현동 1650",
    "Lon": 126.7678121,
    "Lat": 37.70406629,
    "Fast": 0,
    "Slow": 5,
    "Cars": "ZOE ZEN,레이,쏘울,Peugeot e-208 Allure,Peugeot e-2008 SUV Allure,DS3 E-tense So Chic,SMART EV Z,아이오닉,아이오닉5,i3 120Ah Lux,스파크,BOLT EV LT,Model 3,Model Y,니로EV,코나"
  },
  {
    "Place": "일산임광진흥 아파트",
    "Address": "경기도 고양시 일산서구 탄현동 탄현로 133",
    "Lon": 126.7647946,
    "Lat": 37.70254151,
    "Fast": 1,
    "Slow": 3,
    "Cars": "ZOE ZEN,레이,쏘울,Peugeot e-208 Allure,Peugeot e-2008 SUV Allure,DS3 E-tense So Chic,SMART EV Z,아이오닉,아이오닉5,i3 120Ah Lux,스파크,BOLT EV LT,Model 3,Model Y,니로EV,코나"
  },
  {
    "Place": "일산탄현신원1차 아파트",
    "Address": "경기도 고양시 일산서구 일산동 일현로 8",
    "Lon": 126.761934,
    "Lat": 37.68871996,
    "Fast": 0,
    "Slow": 2,
    "Cars": "ZOE ZEN,레이,쏘울,Peugeot e-208 Allure,Peugeot e-2008 SUV Allure,DS3 E-tense So Chic,SMART EV Z,아이오닉,아이오닉5,i3 120Ah Lux,스파크,BOLT EV LT,Model 3,Model Y,니로EV,코나"
  },
  {
    "Place": "일산탄현신원2차 아파트",
    "Address": "경기도 고양시 일산서구 일산동 원일로 3",
    "Lon": 126.762448,
    "Lat": 37.68757057,
    "Fast": 0,
    "Slow": 2,
    "Cars": "ZOE ZEN,레이,쏘울,Peugeot e-208 Allure,Peugeot e-2008 SUV Allure,DS3 E-tense So Chic,SMART EV Z,아이오닉,아이오닉5,i3 120Ah Lux,스파크,BOLT EV LT,Model 3,Model Y,니로EV,코나"
  },
  {
    "Place": "일산파밀리에2단지아파트",
    "Address": "경기도 고양시 일산서구 덕이동 하이파크3로 111",
    "Lon": 126.7516806,
    "Lat": 37.70166135,
    "Fast": 1,
    "Slow": 4,
    "Cars": "ZOE ZEN,레이,쏘울,Peugeot e-208 Allure,Peugeot e-2008 SUV Allure,DS3 E-tense So Chic,SMART EV Z,아이오닉,아이오닉5,i3 120Ah Lux,스파크,BOLT EV LT,Model 3,Model Y,니로EV,코나"
  },
  {
    "Place": "일산파밀리에3단지",
    "Address": "경기도 고양시 일산서구 덕이동 하이파크2로59번길 7",
    "Lon": 126.7538665,
    "Lat": 37.70052377,
    "Fast": 1,
    "Slow": 2,
    "Cars": "ZOE ZEN,레이,쏘울,Peugeot e-208 Allure,Peugeot e-2008 SUV Allure,DS3 E-tense So Chic,SMART EV Z,아이오닉,아이오닉5,i3 120Ah Lux,스파크,BOLT EV LT,Model 3,Model Y,니로EV,코나"
  },
  {
    "Place": "일산파밀리에4단지",
    "Address": "경기도 고양시 일산서구 덕이동 하이파크3로 61",
    "Lon": 126.7510667,
    "Lat": 37.69891294,
    "Fast": 2,
    "Slow": 5,
    "Cars": "ZOE ZEN,레이,쏘울,Peugeot e-208 Allure,Peugeot e-2008 SUV Allure,DS3 E-tense So Chic,SMART EV Z,아이오닉,아이오닉5,i3 120Ah Lux,스파크,BOLT EV LT,Model 3,Model Y,니로EV,코나"
  },
  {
    "Place": "일산푸르지오",
    "Address": "경기 고양시 일산서구 일산동 1945-1",
    "Lon": 126.7730771,
    "Lat": 37.69048817,
    "Fast": 1,
    "Slow": 0,
    "Cars": "ZOE ZEN,레이,쏘울,Peugeot e-208 Allure,Peugeot e-2008 SUV Allure,DS3 E-tense So Chic,SMART EV Z,아이오닉,아이오닉5,i3 120Ah Lux,스파크,BOLT EV LT,Model 3,Model Y,니로EV,코나"
  },
  {
    "Place": "탄현동성 아파트",
    "Address": "경기도 고양시 일산서구 탄현동 일현로 128",
    "Lon": 126.7677279,
    "Lat": 37.69942877,
    "Fast": 1,
    "Slow": 1,
    "Cars": "ZOE ZEN,레이,쏘울,Peugeot e-208 Allure,Peugeot e-2008 SUV Allure,DS3 E-tense So Chic,SMART EV Z,아이오닉,아이오닉5,i3 120Ah Lux,스파크,BOLT EV LT,Model 3,Model Y,니로EV,코나"
  },
  {
    "Place": "탄현마을6단지현대한신 아파트",
    "Address": "경기도 고양시 일산서구 탄현동 현중로 64",
    "Lon": 126.7679735,
    "Lat": 37.69630273,
    "Fast": 1,
    "Slow": 2,
    "Cars": "ZOE ZEN,레이,쏘울,Peugeot e-208 Allure,Peugeot e-2008 SUV Allure,DS3 E-tense So Chic,SMART EV Z,아이오닉,아이오닉5,i3 120Ah Lux,스파크,BOLT EV LT,Model 3,Model Y,니로EV,코나"
  },
  {
    "Place": "탄현역 환승공영주차장",
    "Address": "경기도 고양시 일산서구 일현로 97-27",
    "Lon": 126.7613685,
    "Lat": 37.69535121,
    "Fast": 1,
    "Slow": 0,
    "Cars": "ZOE ZEN,레이,쏘울,Peugeot e-208 Allure,Peugeot e-2008 SUV Allure,DS3 E-tense So Chic,SMART EV Z,아이오닉,아이오닉5,i3 120Ah Lux,스파크,BOLT EV LT,Model 3,Model Y,니로EV,코나"
  },
  {
    "Place": "한국건설기술연구원",
    "Address": "경기도 고양시 일산서구 고양대로 315",
    "Lon": 126.7411602,
    "Lat": 37.67241737,
    "Fast": 1,
    "Slow": 3,
    "Cars": "ZOE ZEN,레이,쏘울,Peugeot e-208 Allure,Peugeot e-2008 SUV Allure,DS3 E-tense So Chic,SMART EV Z,아이오닉,아이오닉5,i3 120Ah Lux,스파크,BOLT EV LT,Model 3,Model Y,니로EV,코나"
  },
  {
    "Place": "후곡14단지청구 아파트",
    "Address": "경기도 고양시 일산서구 일산동 강선로 164",
    "Lon": 126.7722712,
    "Lat": 37.6774986,
    "Fast": 1,
    "Slow": 2,
    "Cars": "ZOE ZEN,레이,쏘울,Peugeot e-208 Allure,Peugeot e-2008 SUV Allure,DS3 E-tense So Chic,SMART EV Z,아이오닉,아이오닉5,i3 120Ah Lux,스파크,BOLT EV LT,Model 3,Model Y,니로EV,코나"
  },
  {
    "Place": "후곡17단지태영아파트",
    "Address": "경기도 고양시 일산서구 일산동 강선로 142",
    "Lon": 126.7707704,
    "Lat": 37.67513905,
    "Fast": 1,
    "Slow": 2,
    "Cars": "ZOE ZEN,레이,쏘울,Peugeot e-208 Allure,Peugeot e-2008 SUV Allure,DS3 E-tense So Chic,SMART EV Z,아이오닉,아이오닉5,i3 120Ah Lux,스파크,BOLT EV LT,Model 3,Model Y,니로EV,코나"
  },
  {
    "Place": "후곡18단지현대 아파트",
    "Address": "경기도 고양시 일산서구 일산동 일산로 487",
    "Lon": 126.7720089,
    "Lat": 37.6746014,
    "Fast": 1,
    "Slow": 3,
    "Cars": "ZOE ZEN,레이,쏘울,Peugeot e-208 Allure,Peugeot e-2008 SUV Allure,DS3 E-tense So Chic,SMART EV Z,아이오닉,아이오닉5,i3 120Ah Lux,스파크,BOLT EV LT,Model 3,Model Y,니로EV,코나"
  },
  {
    "Place": "후곡4단지",
    "Address": "경기도 고양시 일산서구 일산동 1066",
    "Lon": 126.7658613,
    "Lat": 37.67984227,
    "Fast": 1,
    "Slow": 3,
    "Cars": "ZOE ZEN,레이,쏘울,Peugeot e-208 Allure,Peugeot e-2008 SUV Allure,DS3 E-tense So Chic,SMART EV Z,아이오닉,아이오닉5,i3 120Ah Lux,스파크,BOLT EV LT,Model 3,Model Y,니로EV,코나"
  },