[
  {
    "Name": "가평군",
    "lon": 127.5101842,
    "lat": 37.83113936
  },
  {
    "Name": "강릉시",
    "lon": 128.8759583,
    "lat": 37.75206262
  },
  {
    "Name": "강원",
    "lon": 127.7290938,
    "lat": 37.88504283
  },
  {
    "Name": "강진군",
    "lon": 126.7671076,
    "lat": 34.64201837
  },
  {
    "Name": "거제시",
    "lon": 128.6217935,
    "lat": 34.88091551
  },
  {
    "Name": "거창군",
    "lon": 127.909095,
    "lat": 35.68676075
  },
  {
    "Name": "경기",
    "lon": 127.0087455,
    "lat": 37.27597203
  },
  {
    "Name": "경남",
    "lon": 128.6923875,
    "lat": 35.2381767
  },
  {
    "Name": "경북",
    "lon": 128.5055932,
    "lat": 36.57507303
  },
  {
    "Name": "경산시",
    "lon": 128.7414762,
    "lat": 35.82510861
  },
  {
    "Name": "경주시",
    "lon": 129.2253546,
    "lat": 35.85639422
  },
  {
    "Name": "계룡시",
    "lon": 127.2488053,
    "lat": 36.27519117
  },
  {
    "Name": "고령군",
    "lon": 128.2632962,
    "lat": 35.72545536
  },
  {
    "Name": "고성군",
    "lon": 128.4680465,
    "lat": 38.38129972
  },
  {
    "Name": "고성군",
    "lon": 128.3219769,
    "lat": 34.97329535
  },
  {
    "Name": "고양시",
    "lon": 126.8319604,
    "lat": 37.65841356
  },
  {
    "Name": "고창군",
    "lon": 126.7016751,
    "lat": 35.43583114
  },
  {
    "Name": "고흥군",
    "lon": 127.2412178,
    "lat": 34.600344
  },
  {
    "Name": "곡성군",
    "lon": 127.2919526,
    "lat": 35.28203191
  },
  {
    "Name": "공주시",
    "lon": 127.1190689,
    "lat": 36.44616123
  },
  {
    "Name": "과천시",
    "lon": 126.9866564,
    "lat": 37.42951737
  },
  {
    "Name": "광명시",
    "lon": 126.8646648,
    "lat": 37.47788647
  },
  {
    "Name": "광양시",
    "lon": 127.6961199,
    "lat": 34.93975553
  },
  {
    "Name": "광주광역시",
    "lon": 126.8492871,
    "lat": 35.160081
  },
  {
    "Name": "광주시",
    "lon": 127.2550691,
    "lat": 37.4292876
  },
  {
    "Name": "괴산군",
    "lon": 127.7866826,
    "lat": 36.81524581
  },
  {
    "Name": "구례군",
    "lon": 127.4627525,
    "lat": 35.20255604
  },
  {
    "Name": "구리시",
    "lon": 127.1307751,
    "lat": 37.59410397
  },
  {
    "Name": "구미시",
    "lon": 128.3446711,
    "lat": 36.11978928
  },
  {
    "Name": "군산시",
    "lon": 126.7361715,
    "lat": 35.96690287
  },
  {
    "Name": "군위군",
    "lon": 128.5724861,
    "lat": 36.24324249
  },
  {
    "Name": "군포시",
    "lon": 126.9351688,
    "lat": 37.36160203
  },
  {
    "Name": "금산군",
    "lon": 127.4873033,
    "lat": 36.10867037
  },
  {
    "Name": "김제시",
    "lon": 126.8799212,
    "lat": 35.80351979
  },
  {
    "Name": "김천시",
    "lon": 128.1133091,
    "lat": 36.1397175
  },
  {
    "Name": "김포시",
    "lon": 126.7161612,
    "lat": 37.61585467
  },
  {
    "Name": "김해시",
    "lon": 128.8897342,
    "lat": 35.22886623
  },
  {
    "Name": "나주시",
    "lon": 126.710816,
    "lat": 35.01655521
  },
  {
    "Name": "남양주시",
    "lon": 127.215759,
    "lat": 37.63536634
  },
  {
    "Name": "남원시",
    "lon": 127.3905117,
    "lat": 35.41681869
  },
  {
    "Name": "남해군",
    "lon": 127.892664,
    "lat": 34.83771361
  },
  {
    "Name": "논산시",
    "lon": 127.09939,
    "lat": 36.18738981
  },
  {
    "Name": "단양군",
    "lon": 128.3656559,
    "lat": 36.98510036
  },
  {
    "Name": "담양군",
    "lon": 126.9886983,
    "lat": 35.32113128
  },
  {
    "Name": "당진시",
    "lon": 126.6459712,
    "lat": 36.88974068
  },
  {
    "Name": "대구",
    "lon": 128.6018555,
    "lat": 35.87142631
  },
  {
    "Name": "대전",
    "lon": 127.384633,
    "lat": 36.35038547
  },
  {
    "Name": "동두천시",
    "lon": 127.0600263,
    "lat": 37.90382494
  },
  {
    "Name": "동해시",
    "lon": 129.113505,
    "lat": 37.5244333
  },
  {
    "Name": "목포시",
    "lon": 126.3928559,
    "lat": 34.81197564
  },
  {
    "Name": "무안군",
    "lon": 126.4795072,
    "lat": 34.9904248
  },
  {
    "Name": "무주군",
    "lon": 127.6603302,
    "lat": 36.00685033
  },
  {
    "Name": "문경시",
    "lon": 128.1909293,
    "lat": 36.5866911
  },
  {
    "Name": "밀양시",
    "lon": 128.7452862,
    "lat": 35.50377452
  },
  {
    "Name": "보령시",
    "lon": 126.6127724,
    "lat": 36.33357636
  },
  {
    "Name": "보성군",
    "lon": 127.0800225,
    "lat": 34.77149489
  },
  {
    "Name": "보은군",
    "lon": 127.7289522,
    "lat": 36.48937065
  },
  {
    "Name": "봉화군",
    "lon": 128.7315825,
    "lat": 36.89255211
  },
  {
    "Name": "부산",
    "lon": 129.0755742,
    "lat": 35.1804728
  },
  {
    "Name": "부안군",
    "lon": 126.7330787,
    "lat": 35.73171653
  },
  {
    "Name": "부여군",
    "lon": 126.9097753,
    "lat": 36.27523931
  },
  {
    "Name": "부천시",
    "lon": 126.7653367,
    "lat": 37.50358041
  },
  {
    "Name": "사천시",
    "lon": 128.064206,
    "lat": 35.00362094
  },
  {
    "Name": "산청군",
    "lon": 127.8738249,
    "lat": 35.41583561
  },
  {
    "Name": "삼척시",
    "lon": 129.1660257,
    "lat": 37.44999363
  },
  {
    "Name": "상주시",
    "lon": 128.158738,
    "lat": 36.41138258
  },
  {
    "Name": "서산시",
    "lon": 126.4497359,
    "lat": 36.78412914
  },
  {
    "Name": "서울",
    "lon": 126.9778302,
    "lat": 37.56631933
  },
  {
    "Name": "서천군",
    "lon": 126.6915299,
    "lat": 36.08061989
  },
  {
    "Name": "성남시",
    "lon": 127.1262802,
    "lat": 37.42017798
  },
  {
    "Name": "성주군",
    "lon": 128.2831427,
    "lat": 35.91910193
  },
  {
    "Name": "세종",
    "lon": 127.2922551,
    "lat": 36.59331977
  },
  {
    "Name": "속초시",
    "lon": 128.5917017,
    "lat": 38.20685832
  },
  {
    "Name": "수원시",
    "lon": 127.0286618,
    "lat": 37.26345269
  },
  {
    "Name": "순창군",
    "lon": 127.1373695,
    "lat": 35.37445445
  },
  {
    "Name": "순천시",
    "lon": 127.4870053,
    "lat": 34.95039826
  },
  {
    "Name": "시흥시",
    "lon": 126.8035995,
    "lat": 37.37981912
  },
  {
    "Name": "신안군",
    "lon": 126.351425,
    "lat": 34.83360226
  },
  {
    "Name": "아산시",
    "lon": 127.001723,
    "lat": 36.7891705
  },
  {
    "Name": "안동시",
    "lon": 128.7296039,
    "lat": 36.56842944
  },
  {
    "Name": "안산시",
    "lon": 126.8302415,
    "lat": 37.32212965
  },
  {
    "Name": "안성시",
    "lon": 127.2803041,
    "lat": 37.00734201
  },
  {
    "Name": "안양시",
    "lon": 126.9577126,
    "lat": 37.39439354
  },
  {
    "Name": "양구군",
    "lon": 128.0035363,
    "lat": 38.11118046
  },
  {
    "Name": "양산시",
    "lon": 129.036702,
    "lat": 35.33523551
  },
  {
    "Name": "양양군",
    "lon": 128.6195411,
    "lat": 38.0761318
  },
  {
    "Name": "양주시",
    "lon": 127.0449118,
    "lat": 37.78535036
  },
  {
    "Name": "양평군",
    "lon": 127.487681,
    "lat": 37.49174101
  },
  {
    "Name": "여수시",
    "lon": 127.6623034,
    "lat": 34.76042962
  },
  {
    "Name": "여주시",
    "lon": 127.6374411,
    "lat": 37.29813733
  },
  {
    "Name": "연천군",
    "lon": 127.0747149,
    "lat": 38.09674125
  },
  {
    "Name": "영광군",
    "lon": 126.5119767,
    "lat": 35.27716267
  },
  {
    "Name": "영덕군",
    "lon": 129.3661103,
    "lat": 36.41495729
  },
  {
    "Name": "영동군",
    "lon": 127.7848262,
    "lat": 36.17490322
  },
  {
    "Name": "영암군",
    "lon": 126.6970232,
    "lat": 34.79988001
  },
  {
    "Name": "영양군",
    "lon": 129.1123665,
    "lat": 36.66718244
  },
  {
    "Name": "영월군",
    "lon": 128.4619313,
    "lat": 37.18435178
  },
  {
    "Name": "영주시",
    "lon": 128.6248028,
    "lat": 36.80594482
  },
  {
    "Name": "영천시",
    "lon": 128.938479,
    "lat": 35.97331264
  },
  {
    "Name": "예산군",
    "lon": 126.8488609,
    "lat": 36.68212617
  },
  {
    "Name": "예천군",
    "lon": 128.4352491,
    "lat": 36.646694
  },
  {
    "Name": "오산시",
    "lon": 127.0773385,
    "lat": 37.14981942
  },
  {
    "Name": "옥천군",
    "lon": 127.5712521,
    "lat": 36.30684827
  },
  {
    "Name": "완도군",
    "lon": 126.7549613,
    "lat": 34.31097169
  },
  {
    "Name": "완주군",
    "lon": 127.1632427,
    "lat": 35.90464613
  },
  {
    "Name": "용인시",
    "lon": 127.1779685,
    "lat": 37.24086691
  },
  {
    "Name": "울릉군",
    "lon": 130.9057367,
    "lat": 37.48448139
  },
  {
    "Name": "울산",
    "lon": 129.3123146,
    "lat": 35.53876776
  },
  {
    "Name": "울진군",
    "lon": 129.4001743,
    "lat": 36.99273542
  },
  {
    "Name": "원주시",
    "lon": 127.9181763,
    "lat": 37.33975798
  },
  {
    "Name": "음성군",
    "lon": 127.6906704,
    "lat": 36.93942201
  },
  {
    "Name": "의령군",
    "lon": 128.2622285,
    "lat": 35.32239994
  },
  {
    "Name": "의성군",
    "lon": 128.6966596,
    "lat": 36.352619
  },
  {
    "Name": "의왕시",
    "lon": 126.968285,
    "lat": 37.34477464
  },
  {
    "Name": "의정부시",
    "lon": 127.0333966,
    "lat": 37.738047
  },
  {
    "Name": "이천시",
    "lon": 127.4351365,
    "lat": 37.27263783
  },
  {
    "Name": "익산시",
    "lon": 126.958309,
    "lat": 35.94813548
  },
  {
    "Name": "인제군",
    "lon": 128.170303,
    "lat": 38.06959029
  },
  {
    "Name": "인천",
    "lon": 126.7062117,
    "lat": 37.45613296
  },
  {
    "Name": "임실군",
    "lon": 127.2891893,
    "lat": 35.61784579
  },
  {
    "Name": "장성군",
    "lon": 126.7848763,
    "lat": 35.30191198
  },
  {
    "Name": "장수군",
    "lon": 127.5212107,
    "lat": 35.648273
  },
  {
    "Name": "장흥군",
    "lon": 126.9065393,
    "lat": 34.68216173
  },
  {
    "Name": "전남",
    "lon": 126.4642271,
    "lat": 34.81622905
  },
  {
    "Name": "전북",
    "lon": 127.1063174,
    "lat": 35.81978943
  },
  {
    "Name": "전주시",
    "lon": 127.148044,
    "lat": 35.82410911
  },
  {
    "Name": "정선군",
    "lon": 128.6650669,
    "lat": 37.3823706
  },
  {
    "Name": "정읍시",
    "lon": 126.8568854,
    "lat": 35.57069326
  },
  {
    "Name": "제주",
    "lon": 126.4985907,
    "lat": 33.48873957
  },
  {
    "Name": "제천시",
    "lon": 128.191497,
    "lat": 37.13301113
  },
  {
    "Name": "증평군",
    "lon": 127.5807925,
    "lat": 36.78481251
  },
  {
    "Name": "진도군",
    "lon": 126.2629817,
    "lat": 34.48620852
  },
  {
    "Name": "진안군",
    "lon": 127.4248995,
    "lat": 35.79176941
  },
  {
    "Name": "진주시",
    "lon": 128.1077719,
    "lat": 35.18029293
  },
  {
    "Name": "진천군",
    "lon": 127.4357654,
    "lat": 36.85489389
  },
  {
    "Name": "창녕군",
    "lon": 128.492031,
    "lat": 35.5441105
  },
  {
    "Name": "창원시",
    "lon": 128.6818684,
    "lat": 35.22791764
  },
  {
    "Name": "천안시",
    "lon": 127.1130398,
    "lat": 36.81611909
  },
  {
    "Name": "철원군",
    "lon": 127.3125256,
    "lat": 38.14631828
  },
  {
    "Name": "청도군",
    "lon": 128.7339098,
    "lat": 35.64682834
  },
  {
    "Name": "청송군",
    "lon": 129.0564335,
    "lat": 36.4361598
  },
  {
    "Name": "청양군",
    "lon": 126.8013285,
    "lat": 36.45910344
  },
  {
    "Name": "청주시",
    "lon": 127.4877482,
    "lat": 36.63447343
  },
  {
    "Name": "춘천시",
    "lon": 127.7306065,
    "lat": 37.88172307
  },
  {
    "Name": "충남",
    "lon": 126.6728034,
    "lat": 36.65899244
  },
  {
    "Name": "충북",
    "lon": 127.4918098,
    "lat": 36.63634782
  },
  {
    "Name": "충주시",
    "lon": 127.9259405,
    "lat": 36.9913957
  },
  {
    "Name": "칠곡군",
    "lon": 128.4016354,
    "lat": 35.99578826
  },
  {
    "Name": "태백시",
    "lon": 128.9863655,
    "lat": 37.1647458
  },
  {
    "Name": "태안군",
    "lon": 126.2980858,
    "lat": 36.7450308
  },
  {
    "Name": "통영시",
    "lon": 128.4337886,
    "lat": 34.85425858
  },
  {
    "Name": "파주시",
    "lon": 126.779877,
    "lat": 37.76004482
  },
  {
    "Name": "평창군",
    "lon": 128.3901272,
    "lat": 37.37127271
  },
  {
    "Name": "평택시",
    "lon": 127.1121267,
    "lat": 36.99257078
  },
  {
    "Name": "포천시",
    "lon": 127.200343,
    "lat": 37.8947075
  },
  {
    "Name": "포항시",
    "lon": 129.3435095,
    "lat": 36.01950532
  },
  {
    "Name": "하남시",
    "lon": 127.2142822,
    "lat": 37.53958186
  },
  {
    "Name": "하동군",
    "lon": 127.7513141,
    "lat": 35.06730881
  },
  {
    "Name": "함안군",
    "lon": 128.4063546,
    "lat": 35.27300077
  },
  {
    "Name": "함양군",
    "lon": 127.7245571,
    "lat": 35.5202403
  },
  {
    "Name": "함평군",
    "lon": 126.5166419,
    "lat": 35.06590251
  },
  {
    "Name": "합천군",
    "lon": 128.1665013,
    "lat": 35.56620004
  },
  {
    "Name": "해남군",
    "lon": 126.5990653,
    "lat": 34.57347926
  },
  {
    "Name": "홍성군",
    "lon": 126.6602231,
    "lat": 36.60164747
  },
  {
    "Name": "홍천군",
    "lon": 127.8888169,
    "lat": 37.69741112
  },
  {
    "Name": "화성시",
    "lon": 126.8305836,
    "lat": 37.19989229
  },
  {
    "Name": "화순군",
    "lon": 126.9864565,
    "lat": 35.06403502
  },
  {
    "Name": "화천군",
    "lon": 127.7079574,
    "lat": 38.10566811
  },
  {
    "Name": "횡성군",
    "lon": 127.9845286,
    "lat": 37.49161788
  }
]